"objectid","stop_uid","stop_id","stop_code","stop_name","stop_lat","stop_lon","stop_agncy","wheelchair","intersec","stop_place","parent_sta","lat","lng"
"1","MTS_11tbro","11tbro","","11th Ave & Broadway","32.71626794","-117.15464934","MTS","0E-8","","","","32.71626317795451","-117.15463744126299"
"2","MTS_12tS","12tS","","12th & Imperial Station","32.70600195","-117.15337790","MTS","0E-8","","","","32.70599718888697","-117.15336600183123"
"3","MTS_imtS","imtS","","12th & Imperial Station Bayside","32.70522905","-117.15431792","MTS","0E-8","","","","32.70522428902026","-117.15430602187158"
"4","MTS_imp12","imp12","","12th & Imperial Transit Center","32.70568488","-117.15287499","MTS","0E-8","","","","32.705680119208836","-117.1528630915413"
"5","MTS_24tS","24tS","","24th Street Station","32.66185407","-117.10801701","MTS","0E-8","","","","32.66184931194776","-117.10800512324099"
"6","MTS_24tro","24tro","","24th Street Transit Center","32.66184386","-117.10798312","MTS","0E-8","","","","32.661839102186924","-117.10797123354232"
"7","MTS_25tS","25tS","","25th & Commercial St Station","32.70530703","-117.14019998","MTS","0E-8","","","","32.70530226819969","-117.1401880836809"
"8","MTS_32nS","32nS","","32nd & Commercial St Station","32.70591999","-117.12456010","MTS","0E-8","","","","32.70591522812012","-117.12454820704764"
"9","MTS_47tS","47tS","","47th Street Station","32.70845410","-117.09491415","MTS","0E-8","","","","32.70844933578472","-117.09490226134866"
"10","MTS_5thS","5thS","","5th Avenue Station","32.71676205","-117.15970298","MTS","0E-8","","","","32.7167572882213","-117.15969108079531"
"11","MTS_70tSta","70tSta","","70th St. Trolley Station","32.77221030","-117.04202532","MTS","0E-8","","","","32.77220552518668","-117.04201343681939"
"12","MTS_70tS","70tS","","70th Street Station","32.77224895","-117.04247006","MTS","0E-8","","","","32.77224417520154","-117.04245817599553"
"13","MTS_8thS","8thS","","8th Street Station","32.67487514","-117.11308814","MTS","0E-8","","","","32.674870380367054","-117.1130762518943"
"14","MTS_8thtro","8thtro","","8th Street Transit Center","32.67500420","-117.11330096","MTS","0E-8","","","","32.67499944051146","-117.11328907081185"
"15","MTS_amaS","amaS","","Amaya Drive Station","32.78542394","-117.00172290","MTS","0E-8","","","","32.78541916216163","-117.00171102186962"
"16","MTS_apzS","apzS","","America Plaza Station","32.71616941","-117.16898015","MTS","0E-8","","","","32.71616464832999","-117.16896824894138"
"17","MTS_amptro","amptro","","America Plaza Trolley Station","32.71700220","-117.16835451","MTS","0E-8","","","","32.71699743904065","-117.16834260869135"
"18","MTS_arnS","arnS","","Arnele Avenue Station","32.80461604","-116.97572699","MTS","0E-8","","","","32.80461125826494","-116.97571511583443"
"19","MTS_balS","balS","","Balboa Avenue Station","32.80578303","-117.21405352","MTS","0E-8","","","","32.805778260830216","-117.21404160525442"
"20","MTS_baltro","baltro","","Balboa Avenue Transit Center","32.80570489","-117.21367709","MTS","0E-8","","","","32.805700120774056","-117.2136651742073"
"21","MTS_barS","barS","","Barrio Logan Station","32.69802393","-117.14658793","MTS","0E-8","","","","32.698019169975645","-117.14657603374351"
"22","MTS_beyS","beyS","","Beyer Blvd Station","32.55757111","-117.04697410","MTS","0E-8","","","","32.55756636126712","-117.04696223122059"
"23","MTS_broket","broket","","Broadway & Kettner Bl","32.71571435","-117.16889380","MTS","0E-8","","","","32.71570958911175","-117.1688818993386"
"24","MTS_ccoS","ccoS","","City College Station","32.71630698","-117.15423488","MTS","0E-8","","","","32.71630221796878","-117.15422298157453"
"25","MTS_citcol","citcol","","City College Trolley Station","32.71581964","-117.15393922","MTS","0E-8","","","","32.71581487789682","-117.15392732188116"
"26","MTS_civS","civS","","Civic Center Station","32.71674108","-117.16246797","MTS","0E-8","","","","32.71673631833196","-117.16245606969855"
"27","MTS_claS","claS","","Clairemont Drive Station","32.79001930","-117.20614883","MTS","0E-8","","","","32.79001453122887","-117.20613691693832"
"28","MTS_conS","conS","","Convention Center Station","32.70893214","-117.16345215","MTS","0E-8","","","","32.708927378816156","-117.16344025036845"
"29","MTS_cocS","cocS","","County Center/Little Italy Station","32.72142393","-117.16995087","MTS","0E-8","","","","32.721419168149176","-117.16993896805258"
"30","MTS_corsta","corsta","","Courthouse Station","32.71664409","-117.16605994","MTS","0E-8","","","","32.71663932847788","-117.16604803844452"
"31","MTS_estS","estS","","E Street Station","32.63900589","-117.09908001","MTS","0E-8","","","","32.63900113427343","-117.0990681263244"
"32","MTS_etro","etro","","E Street Transit Center","32.63877909","-117.09844927","MTS","0E-8","","","","32.63877433458087","-117.09843738624102"
"33","MTS_i15eln","i15eln","","El Cajon Blvd & I-15","32.75556656","-117.10867043","MTS","0E-8","","","","32.755561790367054","-117.10865853581207"
"34","MTS_i15els","i15els","","El Cajon Blvd & I-15","32.75481277","-117.10888915","MTS","0E-8","","","","32.75480800096362","-117.10887725644396"
"35","MTS_elcS","elcS","","El Cajon Station","32.79198192","-116.97617996","MTS","0E-8","","","","32.791977140080355","-116.97616808677255"
"36","MTS_ecajtc","ecajtc","","El Cajon Transit Center","32.79203225","-116.97570594","MTS","0E-8","","","","32.79202746951406","-116.97569406657564"
"37","MTS_62nS","62nS","","Encanto/62nd St Station","32.71011487","-117.06321004","MTS","0E-8","","","","32.710110104112985","-117.06319815663353"
"38","MTS_enctro","enctro","","Encanto/62nd St Trolley Station","32.71035850","-117.06365020","MTS","0E-8","","","","32.710353733870406","-117.06363831659402"
"39","MTS_eucS","eucS","","Euclid Ave Station","32.70954699","-117.08594801","MTS","0E-8","","","","32.709542224984496","-117.08593612328848"
"40","MTS_euctro","euctro","","Euclid Ave Station","32.71002276","-117.08619050","MTS","0E-8","","","","32.7100179950327","-117.08617861415375"
"41","MTS_exeS","exeS","","Executive Drive Station","32.87414782","-117.21404501","MTS","0E-8","","","","32.87414304207548","-117.21403308975546"
"42","MTS_favS","favS","","Fashion Valley Station","32.76548187","-117.16906290","MTS","0E-8","","","","32.76547710209794","-117.16905099496287"
"43","MTS_fasvtc","fasvtc","","Fashion Valley Transit Center","32.76561826","-117.16942411","MTS","0E-8","","","","32.76561349266103","-117.1694122055074"
"44","MTS_fenS","fenS","","Fenton Parkway Station","32.77829392","-117.12716187","MTS","0E-8","","","","32.778289149755665","-117.12714997176049"
"45","MTS_gasS","gasS","","Gaslamp Quarter Station","32.70684448","-117.15968093","MTS","0E-8","","","","32.70683971921863","-117.15966903106532"
"46","MTS_genljN","genljN","","Genesee & La Jolla Village Dr.","32.87321691","-117.21383157","MTS","0E-8","","","","32.873212132376814","-117.21381964895536"
"47","MTS_welS","welS","","Gillespie Field Station","32.82692192","-116.98209886","MTS","0E-8","","","","32.82691713568974","-116.98208698330062"
"48","MTS_frmS","frmS","","Grantville Station","32.78049112","-117.09749294","MTS","0E-8","","","","32.78048634721747","-117.09748104648509"
"49","MTS_gratro","gratro","","Grantville Trolley Station","32.78031471","-117.09720753","MTS","0E-8","","","","32.78030993771556","-117.09719563611613"
"50","MTS_groS","groS","","Grossmont Station","32.78181594","-117.01106192","MTS","0E-8","","","","32.78181116260901","-117.01105004068225"
"51","MTS_grotro","grotro","","Grossmont Transit Center","32.78193376","-117.01112182","MTS","0E-8","","","","32.7819289829364","-117.01110994144872"
"52","MTS_hstS","hstS","","H Street Station","32.63007394","-117.09558911","MTS","0E-8","","","","32.63006918472505","-117.09557722755964"
"53","MTS_htro","htro","","H Street Transit Center","32.62961231","-117.09509066","MTS","0E-8","","","","32.629607555075694","-117.09507877715077"
"54","MTS_harS","harS","","Harborside Station","32.69126696","-117.13280415","MTS","0E-8","","","","32.6912621994559","-117.13279225714419"
"55","MTS_hazS","hazS","","Hazard Center Station","32.77024996","-117.15830309","MTS","0E-8","","","","32.77024519143783","-117.15829118635007"
"56","MTS_iritro","iritro","","Iris Ave Transit Center East","32.56985255","-117.06607925","MTS","0E-8","","","","32.56984780073488","-117.06606737710337"
"57","MTS_iritrW","iritrW","","Iris Ave Transit Center West","32.56968604","-117.06723290","MTS","0E-8","","","","32.56968129099283","-117.06722102679396"
"58","MTS_iriS","iriS","","Iris Avenue Station","32.56965611","-117.06710507","MTS","0E-8","","","","32.56965136124423","-117.0670931960284"
"59","MTS_kmtc","kmtc","","Kearny Mesa Transit Center","32.83138855","-117.13505585","MTS","0E-8","","","","32.831383773236716","-117.13504394603997"
"60","MTS_lamS","lamS","","La Mesa Blvd Station","32.76501905","-117.02055190","MTS","0E-8","","","","32.76501427475829","-117.02054002077429"
"61","MTS_broS","broS","","Lemon Grove Depot","32.74338603","-117.03073112","MTS","0E-8","","","","32.74338125873043","-117.0307192399278"
"62","MTS_masS","masS","","Massachusetts Ave Station","32.72352489","-117.03958489","MTS","0E-8","","","","32.72352012055122","-117.0395730100493"
"63","MTS_midS","midS","","Middletown Station","32.73360900","-117.17483104","MTS","0E-8","","","","32.73360423672455","-117.17481913665885"
"64","MTS_msdS","msdS","","Mission San Diego Station","32.78092701","-117.11107808","MTS","0E-8","","","","32.780922237841345","-117.1110661844442"
"65","MTS_mivS","mivS","","Mission Valley Center Station","32.77109601","-117.15000394","MTS","0E-8","","","","32.77109124111768","-117.14999203773436"
"66","MTS_morS","morS","","Morena/Linda Vista Station","32.76356109","-117.19670997","MTS","0E-8","","","","32.76355632423165","-117.19669806096555"
"67","MTS_nobS","nobS","","Nobel Drive Station","32.86690404","-117.23042992","MTS","0E-8","","","","32.866899263988024","-117.23041799698152"
"68","MTS_oldS","oldS","","Old Town Station","32.75473489","-117.19958906","MTS","0E-8","","","","32.75473012527348","-117.19957715123982"
"69","MTS_ottcw2","ottcw2","","Old Town TC West @ Pacific Hwy","32.75458604","-117.20032321","MTS","0E-8","","","","32.75458127564576","-117.20031130054214"
"70","MTS_ottc_e","ottc_e","","Old Town Transit Center East","32.75459345","-117.19925316","MTS","0E-8","","","","32.75458868508318","-117.19924125008181"
"71","MTS_ottc_w","ottc_w","","Old Town Transit Center West","32.75455284","-117.19988699","MTS","0E-8","","","","32.75454807575395","-117.19987508079507"
"72","MTS_pacS","pacS","","Pacific Fleet Station","32.68600505","-117.12472886","MTS","0E-8","","","","32.68600029047983","-117.1247169682971"
"73","MTS_plmS","plmS","","Palm Avenue Station","32.58461410","-117.08379909","MTS","0E-8","","","","32.58460934933197","-117.08378721241684"
"74","MTS_palS","palS","","Palomar Street Station","32.60315102","-117.08508894","MTS","0E-8","","","","32.60314626736859","-117.08507706119285"
"75","MTS_paltro","paltro","","Palomar Street Transit Center","32.60314168","-117.08451964","MTS","0E-8","","","","32.603136928087636","-117.08450776096059"
"76","MTS_marS","marS","","Park & Market Station","32.71097994","-117.15376800","MTS","0E-8","","","","32.71097517785528","-117.15375610119864"
"77","MTS_marpar","marpar","","Park & Market Trolley Station","32.71153707","-117.15399283","MTS","0E-8","","","","32.71153230878141","-117.1539809318056"
"78","MTS_rioS","rioS","","Rio Vista Station","32.77365197","-117.14181010","MTS","0E-8","","","","32.773647200804184","-117.14179819918998"
"79","MTS_svicot","svicot","","S Vista Rd & Cottonwood Rd","32.55790492","-117.04809645","MTS","0E-8","","","","32.557900171482856","-117.0480845802572"
"80","MTS_sayS","sayS","","San Ysidro Station","32.54445997","-117.02948196","MTS","0E-8","","","","32.54445522209098","-117.02947009500865"
"81","MTS_sytro","sytro","","San Ysidro Transit Center","32.54425837","-117.02985075","MTS","0E-8","","","","32.54425362147773","-117.02983888396489"
"82","MTS_sfdS","sfdS","","Santa Fe Depot","32.71763712","-117.16982811","MTS","0E-8","","","","32.71763235857183","-117.16981620895814"
"83","MTS_santtc","santtc","","Santee Town Center","32.84256655","-116.98089115","MTS","0E-8","","","","32.84256176430608","-116.98087927208036"
"84","MTS_sanS","sanS","","Santee Town Center Station","32.84170710","-116.98098299","MTS","0E-8","","","","32.841702313383834","-116.98097111282262"
"85","MTS_sdsS","sdsS","","SDSU Station","32.77327008","-117.07059614","MTS","0E-8","","","","32.77326530676495","-117.07058425191333"
"86","MTS_sdsutc","sdsutc","","SDSU Transit Center","32.77330790","-117.07069539","MTS","0E-8","","","","32.77330312646703","-117.07068350067368"
"87","MTS_seaS","seaS","","Seaport Village Station","32.71192306","-117.16859712","MTS","0E-8","","","","32.71191829899654","-117.16858521914098"
"88","MTS_svcoas","svcoas","","Sorrento Valley COASTER Station","32.90272914","-117.22488084","MTS","0E-8","","","","32.90272435903473","-117.22486891573037"
"89","MTS_swcoll","swcoll","","Southwestern College","32.64143620","-116.99595102","MTS","0E-8","","","","32.64143143843558","-116.99593915355682"
"90","MTS_sprS","sprS","","Spring Street Station","32.75685196","-117.01745805","MTS","0E-8","","","","32.756847185916335","-117.01744617151711"
"91","MTS_sprtro","sprtro","","Spring Street Station","32.75686007","-117.01721547","MTS","0E-8","","","","32.756855295600815","-117.01720359222927"
"92","MTS_quaS","quaS","","Stadium","32.78096232","-117.11909764","MTS","0E-8","","","","32.780957549020805","-117.11908574260286"
"93","MTS_tecS","tecS","","Tecolote Road Station","32.76985468","-117.20508997","MTS","0E-8","","","","32.769849914082734","-117.20507805857584"
"94","MTS_pepS","pepS","","UCSD Central Campus Station","32.87835310","-117.23184250","MTS","0E-8","","","","32.87834832317828","-117.2318305767154"
"95","MTS_peptc","peptc","","UCSD Central Campus Station","32.87943518","-117.23194838","MTS","0E-8","","","","32.87943040280128","-117.2319364556879"
"96","MTS_avlS","avlS","","UCSD Health East Station","32.77736594","-117.05683205","MTS","0E-8","","","","32.77736116523369","-117.05682016385441"
"97","MTS_voiS","voiS","","UCSD Health La Jolla Station","32.88185154","-117.22352634","MTS","0E-8","","","","32.88184676182033","-117.22351441704681"
"98","MTS_i15unn","i15unn","","University & I-15","32.75003158","-117.10867536","MTS","0E-8","","","","32.75002681184292","-117.10866346660147"
"99","MTS_i15uns","i15uns","","University & I-15","32.74936940","-117.10892260","MTS","0E-8","","","","32.74936463147805","-117.10891070666557"
"100","MTS_utcS","utcS","","UTC Station","32.86920843","-117.21404561","MTS","0E-8","","","","32.869203652521996","-117.21403369024131"
"101","MTS_utc","utc","","UTC Transit Center","32.86888288","-117.21275752","MTS","0E-8","","","","32.868878102774374","-117.21274559936592"
"102","MTS_vahS","vahS","","VA Medical Center Station","32.87419577","-117.22989037","MTS","0E-8","","","","32.874190993127684","-117.22987844651445"
"103","MTS_wasS","wasS","","Washington Street Station","32.74163494","-117.18438892","MTS","0E-8","","","","32.74163017627196","-117.18437701396451"
"104","MTS_12049","12049","12049","10th Av & A St","32.71857729","-117.15569071","MTS","2.00000000","F-S/B","10thb","","32.7185725276843","-117.15567881002825"
"105","MTS_11656","11656","11656","10th Av & Broadway","32.71597740","-117.15566399","MTS","0E-8","N-S/B","10tbro","","32.715972637372325","-117.1556520912733"
"106","MTS_11654","11654","11654","10th Av & C St","32.71692554","-117.15567699","MTS","1.00000000","N-S/B","10thc","","32.716920778218565","-117.1556650913126"
"107","MTS_12048","12048","12048","10th Av & F St","32.71348748","-117.15563191","MTS","1.00000000","F-S/B","","","32.71348271819445","-117.15562001144198"
"108","MTS_12050","12050","12050","10th Av & Island Av","32.71023346","-117.15560173","MTS","1.00000000","F-S/B","","","32.71022869806168","-117.15558983154544"
"109","MTS_11657","11657","11657","10th Av & Market St","32.71176685","-117.15564024","MTS","2.00000000","N-S/B","","","32.7117620880637","-117.15562834045754"
"110","MTS_99005","99005","99005","10th Av & Park Bl (Petco Park)","32.70750534","-117.15506981","MTS","1.00000000","N-E/B","","","32.70750057955775","-117.15505791116284"
"111","MTS_98548","98548","98548","11099 Callan Rd","32.90480501","-117.24065516","MTS","1.00000000","M-Street-W/B","","","32.90480023030074","-117.24064323288732"
"112","MTS_99367","99367","99367","11th Av & B St","32.71769488","-117.15458595","MTS","1.00000000","N-N/B","11thb","","32.7176901176091","-117.15457405163647"
"113","MTS_12782","12782","12782","11th Av & Broadway","32.71635101","-117.15456566","MTS","1.00000000","F-N/B","11tbro","11tbro","32.716346247777146","-117.1545537612972"
"114","MTS_99343","99343","99343","11th Av & C St","32.71652951","-117.15458700","MTS","1.00000000","N-N/B","11tbro","11tbro","32.71652474734725","-117.15457510072193"
"115","MTS_12781","12781","12781","11th Av & F St","32.71399810","-117.15459028","MTS","1.00000000","F-N/B","","","32.713993338291154","-117.1545783808423"
"116","MTS_99010","99010","99010","11th Av & K St","32.70833408","-117.15449964","MTS","1.00000000","N-N/B","","","32.70832931909034","-117.1544877417576"
"117","MTS_12441","12441","12441","11th Av & Market St","32.71139567","-117.15453431","MTS","1.00000000","N-N/B","","","32.71139090815181","-117.15452241186853"
"118","MTS_75102","75102","75102","12th & Imperial Station","32.70587009","-117.15321790","MTS","0E-8","","12tS","12tS","32.705865328755486","-117.15320600262761"
"119","MTS_75103","75103","75103","12th & Imperial Station","32.70578492","-117.15332593","MTS","0E-8","","12tS","12tS","32.70578015886593","-117.15331403222591"
"120","MTS_75100","75100","75100","12th & Imperial Station (Bayside)","32.70523403","-117.15389991","MTS","0E-8","","imtS","imtS","32.70522926932676","-117.15388801223908"
"121","MTS_70009","70009","70009","12th & Imperial Transit Center","32.70609480","-117.15289674","MTS","0E-8","M-TC-Bus","imp12","imp12","32.70609003926196","-117.15288484231212"
"122","MTS_88899","88899","88899","12th & Imperial Transit Center","32.70555096","-117.15228294","MTS","0E-8","N-S/B","imp12","imp12","32.70554619883447","-117.15227104148798"
"123","MTS_91101","91101","91101","12th & Imperial Transit Center","32.70605117","-117.15322463","MTS","1.00000000","M-TC-Bus","imp12","imp12","32.70604640844857","-117.15321273185934"
"124","MTS_91102","91102","91102","12th & Imperial Transit Center","32.70560245","-117.15294696","MTS","1.00000000","M-TC-Bus","imp12","imp12","32.70559768868705","-117.1529350615565"
"125","MTS_60401","60401","60401","13th St & Fern Av","32.57503491","-117.10558266","MTS","1.00000000","F-N/B","","","32.575030162546874","-117.10557078001679"
"126","MTS_60342","60342","60342","13th St & Grove Av","32.57276194","-117.10558010","MTS","1.00000000","N-N/B","","","32.57275719324173","-117.10556821919815"
"127","MTS_60229","60229","60229","13th St & Holly Av","32.57164428","-117.10583544","MTS","1.00000000","N-S/B","","","32.571639532122326","-117.1058235599422"
"128","MTS_60341","60341","60341","13th St & Holly Av","32.57134906","-117.10560212","MTS","1.00000000","N-N/B","","","32.57134431266032","-117.10559023926986"
"129","MTS_60230","60230","60230","13th St & Imperial Beach Bl","32.57588817","-117.10580192","MTS","1.00000000","F-S/B","","","32.575883422700976","-117.10579003960876"
"130","MTS_60186","60186","60186","13th St & Iris Av","32.56943066","-117.10559651","MTS","1.00000000","N-N/B","13iris","","32.56942591312036","-117.10558462981132"
"131","MTS_88984","88984","88984","14th St & F St","32.71373903","-117.15191062","MTS","0E-8","F-N/B","","","32.713734267649784","-117.1518987215164"
"132","MTS_99288","99288","99288","18th St & C Av","32.66808777","-117.10082487","MTS","1.00000000","F-W/B","","","32.66808301054914","-117.10081298419043"
"133","MTS_99281","99281","99281","18th St & C St","32.66787097","-117.10077728","MTS","1.00000000","N-E/B","","","32.667866211247166","-117.10076539379597"
"134","MTS_50140","50140","50140","18th St & Harding Av","32.66590130","-117.10777044","MTS","1.00000000","N-E/B","","","32.66589654128429","-117.10775855289448"
"135","MTS_99282","99282","99282","18th St & Harding Av","32.66620281","-117.10749393","MTS","2.00000000","N-W/B","","","32.66619805204404","-117.1074820426709"
"136","MTS_99286","99286","99286","18th St & Highland Av","32.66964963","-117.09512729","MTS","1.00000000","N-W/B","high18","","32.66964487026578","-117.09511540497918"
"137","MTS_99315","99315","99315","18th St & Highland Av","32.66937711","-117.09558936","MTS","1.00000000","N-E/B","high18","","32.66937235035546","-117.09557747421728"
"138","MTS_99285","99285","99285","18th St & L Av","32.67077924","-117.09111191","MTS","1.00000000","N-W/B","","","32.670774479958496","-117.09110002555104"
"139","MTS_99316","99316","99316","18th St & L Av","32.67070397","-117.09086423","MTS","1.00000000","F-E/B","","","32.6706992104602","-117.09085234489534"
"140","MTS_50008","50008","50008","18th St & N Av","32.67125056","-117.08890020","MTS","1.00000000","F-E/B","","","32.671245799658486","-117.08888831563239"
"141","MTS_50065","50065","50065","18th St & N Av","32.67136504","-117.08904102","MTS","1.00000000","N-W/B","","","32.67136028007957","-117.08902913644386"
"142","MTS_59003","59003","59003","18th St & National City Bl","32.66717520","-117.10322064","MTS","1.00000000","F-E/B","nat18t","","32.667170441267444","-117.10320875341847"
"143","MTS_99308","99308","99308","18th St & National City Bl","32.66712191","-117.10416896","MTS","1.00000000","F-W/B","nat18t","","32.66711715125339","-117.10415707289573"
"144","MTS_50011","50011","50011","18th St & Newell St","32.67279173","-117.08333525","MTS","1.00000000","N-E/B","","","32.67278696964129","-117.08332336620963"
"145","MTS_50082","50082","50082","18th St & Newell St","32.67268730","-117.08414667","MTS","1.00000000","M-Street-W/B","","","32.67268253880587","-117.08413478698294"
"146","MTS_50040","50040","50040","18th St & Palm Av","32.67183694","-117.08673830","MTS","1.00000000","F-E/B","","","32.671832180242184","-117.08672641557479"
"147","MTS_50068","50068","50068","18th St & Palm Av","32.67196519","-117.08687600","MTS","1.00000000","N-W/B","","","32.67196042952667","-117.08686411555908"
"148","MTS_50012","50012","50012","18th St & Prospect St","32.67364475","-117.08033738","MTS","1.00000000","F-E/B","","","32.673639989087704","-117.08032549680331"
"149","MTS_50083","50083","50083","18th St & Prospect St","32.67360803","-117.08089272","MTS","1.00000000","F-W/B","","","32.673603269524705","-117.08088083673897"
"150","MTS_30361","30361","30361","1st Av & Alpine Av","32.63913491","-117.07004651","MTS","1.00000000","N-S/B","","","32.63913015295009","-117.07003463132675"
"151","MTS_12411","12411","12411","1st Av & Ash St","32.71964764","-117.16372935","MTS","1.00000000","N-N/B","1stash","","32.71964287811656","-117.16371744907597"
"152","MTS_12751","12751","12751","1st Av & Broadway","32.71553186","-117.16374976","MTS","0E-8","N-N/B","1stbrd","","32.715527098538324","-117.16373785916876"
"153","MTS_99118","99118","99118","1st Av & Broadway","32.71592600","-117.16374929","MTS","1.00000000","F-N/B","1stbro","","32.71592123904613","-117.16373738932506"
"154","MTS_11637","11637","11637","1st Av & Brookes Av","32.74341279","-117.16390099","MTS","1.00000000","N-S/B","","","32.74340802497711","-117.1638890882115"
"155","MTS_12759","12759","12759","1st Av & Brookes Av","32.74348270","-117.16373911","MTS","1.00000000","F-N/B","","","32.74347793486905","-117.16372720782502"
"156","MTS_60546","60546","60546","1st Av & C St","32.71686629","-117.16371027","MTS","1.00000000","F-N/B","1stc","","32.71686152776848","-117.16369836967995"
"157","MTS_12753","12753","12753","1st Av & Elm St","32.72431993","-117.16375503","MTS","1.00000000","F-N/B","","","32.72431516728509","-117.16374312901152"
"158","MTS_30360","30360","30360","1st Av & F St","32.64326070","-117.07165066","MTS","1.00000000","F-S/B","","","32.64325594276497","-117.07163878005575"
"159","MTS_30415","30415","30415","1st Av & F St","32.64339054","-117.07155116","MTS","0E-8","N-N/B","","","32.64338578295435","-117.0715392805526"
"160","MTS_30416","30416","30416","1st Av & G St","32.63930857","-117.06997016","MTS","1.00000000","N-N/B","","","32.63930381220423","-117.06995828095033"
"161","MTS_12415","12415","12415","1st Av & Grape St","32.72595816","-117.16373950","MTS","1.00000000","N-N/B","","","32.725953396883874","-117.16372759805972"
"162","MTS_12756","12756","12756","1st Av & Ivy St","32.72844805","-117.16377507","MTS","1.00000000","F-N/B","","","32.728443287172695","-117.16376316859541"
"163","MTS_11636","11636","11636","1st Av & Juniper St","32.72943597","-117.16398367","MTS","1.00000000","N-S/B","","","32.729431206719816","-117.16397176875334"
"164","MTS_12014","12014","12014","1st Av & Laurel St","32.73113997","-117.16399484","MTS","1.00000000","F-S/B","","","32.731135206553695","-117.16398293846714"
"165","MTS_12757","12757","12757","1st Av & Laurel St","32.73158666","-117.16380111","MTS","1.00000000","F-N/B","","","32.73158189659314","-117.16378920799076"
"166","MTS_12016","12016","12016","1st Av & Nutmeg St","32.73322041","-117.16401967","MTS","1.00000000","F-S/B","1stnut","","32.73321564644829","-117.16400776774833"
"167","MTS_12417","12417","12417","1st Av & Nutmeg St","32.73332364","-117.16381262","MTS","1.00000000","N-N/B","1stnut","","32.73331887616626","-117.16380071886844"
"168","MTS_12416","12416","12416","1st Av & Quince St","32.73649246","-117.16384223","MTS","1.00000000","N-N/B","","","32.73648769591958","-117.16383032794855"
"169","MTS_12015","12015","12015","1st Av & Redwood St","32.73759311","-117.16404551","MTS","1.00000000","F-S/B","","","32.73758834563306","-117.16403360826338"
"170","MTS_12018","12018","12018","1st Av & Robinson Av","32.74677674","-117.16393263","MTS","1.00000000","F-S/B","","","32.74677197435061","-117.1639207278205"
"171","MTS_12418","12418","12418","1st Av & Robinson Av","32.74715709","-117.16379022","MTS","1.00000000","F-N/B","","","32.74715232449367","-117.16377831782462"
"172","MTS_12412","12412","12412","1st Av & Spruce St","32.73856748","-117.16385725","MTS","1.00000000","N-N/B","","","32.738562715816975","-117.16384534839074"
"173","MTS_12013","12013","12013","1st Av & Thorn St","32.73955812","-117.16406915","MTS","1.00000000","F-S/B","","","32.73955335557122","-117.16405724806108"
"174","MTS_12414","12414","12414","1st Av & Upas St","32.74066723","-117.16387252","MTS","1.00000000","N-N/B","","","32.74066246511073","-117.16386061787874"
"175","MTS_12017","12017","12017","1st Av & Walnut Av","32.74119891","-117.16407967","MTS","1.00000000","F-S/B","","","32.74119414540848","-117.16406776743962"
"176","MTS_12758","12758","12758","1st Av & Walnut Av","32.74194644","-117.16371667","MTS","1.00000000","F-N/B","","","32.74194167551384","-117.1637047680293"
"177","MTS_60058","60058","60058","1st St & B Av","32.69762037","-117.16973563","MTS","1.00000000","F-E/B","1stfer","","32.69761561067304","-117.169723729449"
"178","MTS_60165","60165","60165","1st St & B Av","32.69795871","-117.17006747","MTS","1.00000000","F-W/B","1stfer","","32.697953950945205","-117.1700555700207"
"179","MTS_50029","50029","50029","24th St & B Av","32.66274886","-117.09862560","MTS","1.00000000","M-Street-E/B","","","32.662744101420905","-117.0986137144249"
"180","MTS_50078","50078","50078","24th St & D Av","32.66315798","-117.09788545","MTS","1.00000000","F-W/B","","","32.663153220978096","-117.0978735650723"
"181","MTS_50027","50027","50027","24th St & National City Bl","32.66209762","-117.10099453","MTS","1.00000000","F-E/B","","","32.66209286182457","-117.10098264431159"
"182","MTS_50053","50053","50053","24th St & National City Bl","32.66220853","-117.10125229","MTS","1.00000000","N-W/B","","","32.6622037716678","-117.10124040460452"
"183","MTS_75014","75014","75014","24th Street Station","32.66196491","-117.10800607","MTS","0E-8","M-TC-Train-N/B","24tS","24tS","32.661960151846955","-117.10799418343534"
"184","MTS_75015","75015","75015","24th Street Station","32.66170409","-117.10800516","MTS","0E-8","M-TC-Train-S/B","24tS","24tS","32.66169933199032","-117.107993273147"
"185","MTS_91136","91136","91136","24th Street Transit Center","32.66195902","-117.10790431","MTS","1.00000000","M-TC-Bus","24tro","24tro","32.66195426170022","-117.10789242264738"
"186","MTS_91138","91138","91138","24th Street Transit Center","32.66162193","-117.10776456","MTS","0E-8","","24tro","24tro","32.66161717121426","-117.1077526731282"
"187","MTS_91139","91139","91139","24th Street Transit Center","32.66157522","-117.10736771","MTS","0E-8","","24tro","24tro","32.66157046136564","-117.10735582368628"
"188","MTS_75074","75074","75074","25th & Commercial St Station","32.70527695","-117.13873095","MTS","0E-8","","25tS","25tS","32.705272187912705","-117.13871905461451"
"189","MTS_75075","75075","75075","25th & Commercial St Station","32.70528997","-117.14115393","MTS","0E-8","","25tS","25tS","32.705285208153725","-117.14114203471097"
"190","MTS_11684","11684","11684","25th St & Broadway","32.71611353","-117.14036505","MTS","1.00000000","N-S/B","","","32.71610876679092","-117.14035315335526"
"191","MTS_11682","11682","11682","25th St & Imperial Av","32.70648888","-117.14027759","MTS","1.00000000","N-S/B","","","32.70648411775388","-117.14026569455281"
"192","MTS_12464","12464","12464","25th St & Imperial Av","32.70610834","-117.14006894","MTS","0E-8","N-N/B","imp25","","32.70610357838894","-117.14005704489888"
"193","MTS_12466","12466","12466","25th St & Island Av","32.71043146","-117.14010934","MTS","0E-8","N-N/B","","","32.71042669811561","-117.14009744386215"
"194","MTS_12076","12076","12076","25th St & J St","32.70923456","-117.14028906","MTS","0E-8","F-S/B","","","32.70922979806665","-117.14027716358035"
"195","MTS_12465","12465","12465","25th St & K St","32.70832625","-117.14008808","MTS","0E-8","N-N/B","","","32.70832148751428","-117.1400761845476"
"196","MTS_60220","60220","60220","26th St & Sicard St","32.69647225","-117.13813836","MTS","0E-8","N-S/B","","","32.696467488912894","-117.13812646518333"
"197","MTS_11639","11639","11639","2nd Av & Ash St","32.72013134","-117.16299305","MTS","1.00000000","N-S/B","","","32.720126577679025","-117.16298114901285"
"198","MTS_11640","11640","11640","2nd Av & Beech St","32.72105450","-117.16303838","MTS","1.00000000","N-S/B","","","32.721049737671756","-117.16302647995435"
"199","MTS_12020","12020","12020","2nd Av & Elm St","32.72383894","-117.16301195","MTS","1.00000000","F-S/B","","","32.72383417709631","-117.16300004962227"
"200","MTS_11641","11641","11641","2nd Av & Fir St","32.72525162","-117.16302008","MTS","1.00000000","N-S/B","","","32.725246857217655","-117.16300817863471"
"201","MTS_40860","40860","40860","2nd St & Broadway","32.80825072","-116.93555615","MTS","1.00000000","F-N/B","","","32.80824593534174","-116.93554428290626"
"202","MTS_41104","41104","41104","2nd St & Dawnridge Av","32.81631477","-116.93555059","MTS","1.00000000","N-N/B","","","32.816309985088324","-116.93553872143447"
"203","MTS_41106","41106","41106","2nd St & Dawnridge Av","32.81612067","-116.93585829","MTS","1.00000000","F-S/B","","","32.81611588467691","-116.93584642164527"
"204","MTS_40668","40668","40668","2nd St & Greenfield Dr","32.81290228","-116.93584624","MTS","1.00000000","F-S/B","","","32.812897494990565","-116.9358343720595"
"205","MTS_41103","41103","41103","2nd St & Greenfield Dr","32.81374761","-116.93556641","MTS","1.00000000","F-N/B","","","32.813742825117856","-116.9355545420927"
"206","MTS_41105","41105","41105","2nd St & Pepper Dr","32.82027157","-116.93523637","MTS","1.00000000","F-S/B","2ndpep","","32.820266783717585","-116.93522450169527"
"207","MTS_40667","40667","40667","2nd St & Persimmon Av","32.81068978","-116.93584203","MTS","1.00000000","F-S/B","","","32.81068499563157","-116.93583016252998"
"208","MTS_60108","60108","60108","2nd St & Soledad Pl","32.69543451","-117.16836713","MTS","1.00000000","N-W/B","","","32.6954297508829","-117.16835523021116"
"209","MTS_13532","13532","13532","30th St & A St","32.71882529","-117.12939642","MTS","1.00000000","N-N/B","30tast","","32.718820525764535","-117.12938452444988"
"210","MTS_13533","13533","13533","30th St & A St","32.71876030","-117.12964612","MTS","1.00000000","F-S/B","30tast","","32.7187555363726","-117.12963422552532"
"211","MTS_12089","12089","12089","30th St & Adams Av","32.76258874","-117.13031472","MTS","1.00000000","F-S/B","30ada","","32.76258397111597","-117.13030282162325"
"212","MTS_11694","11694","11694","30th St & C St","32.71710835","-117.12965890","MTS","1.00000000","N-S/B","c_30st","","32.71710358617585","-117.12964700549729"
"213","MTS_12099","12099","12099","30th St & Date St","32.72322478","-117.13028896","MTS","1.00000000","F-S/B","","","32.72322001585384","-117.13027706458136"
"214","MTS_12091","12091","12091","30th St & Dwight St","32.74399356","-117.13014195","MTS","1.00000000","F-S/B","","","32.74398879367377","-117.13013005350433"
"215","MTS_12478","12478","12478","30th St & Dwight St","32.74410477","-117.12996418","MTS","1.00000000","N-N/B","","","32.744100003475374","-117.12995228300055"
"216","MTS_11692","11692","11692","30th St & El Cajon Bl","32.75555853","-117.13024772","MTS","1.00000000","N-S/B","","","32.755553762005185","-117.13023582200769"
"217","MTS_12476","12476","12476","30th St & El Cajon Bl","32.75494144","-117.13006266","MTS","1.00000000","N-N/B","","","32.75493667222743","-117.1300507622394"
"218","MTS_12818","12818","12818","30th St & Elm St","32.72465551","-117.13007889","MTS","1.00000000","F-N/B","","","32.7246507451212","-117.13006699530514"
"219","MTS_11696","11696","11696","30th St & Fir St","32.72563542","-117.13026101","MTS","1.00000000","N-S/B","","","32.72563065602792","-117.13024911387414"
"220","MTS_12474","12474","12474","30th St & Grape St","32.72641717","-117.13009648","MTS","1.00000000","N-N/B","","","32.726412405619605","-117.13008458463953"
"221","MTS_50037","50037","50037","30th St & Highland Av","32.65928100","-117.09049539","MTS","1.00000000","F-E/B","30high","","32.65927624149399","-117.09048350571175"
"222","MTS_50062","50062","50062","30th St & Highland Av","32.65937404","-117.09095766","MTS","1.00000000","N-W/B","30high","","32.65936928151316","-117.0909457760359"
"223","MTS_12084","12084","12084","30th St & Howard Av","32.75422334","-117.13024349","MTS","1.00000000","F-S/B","","","32.75421857176027","-117.13023159200736"
"224","MTS_12475","12475","12475","30th St & Howard Av","32.75394371","-117.13006571","MTS","1.00000000","N-N/B","","","32.75393894153796","-117.13005381310971"
"225","MTS_12096","12096","12096","30th St & Juniper St","32.72985318","-117.12965929","MTS","1.00000000","N-S/B","","","32.72984841542937","-117.12964739467711"
"226","MTS_12828","12828","12828","30th St & Juniper St","32.72989275","-117.12950685","MTS","1.00000000","F-N/B","","","32.72988798495555","-117.12949495437157"
"227","MTS_50197","50197","50197","30th St & L Av","32.66042553","-117.08709467","MTS","1.00000000","N-W/B","","","32.660420771268555","-117.08708278620264"
"228","MTS_99491","99491","99491","30th St & L Av","32.66028741","-117.08679119","MTS","1.00000000","F-E/B","","","32.66028265058303","-117.0867793067381"
"229","MTS_12086","12086","12086","30th St & Monroe Av","32.75896658","-117.13026226","MTS","1.00000000","F-S/B","","","32.75896181156217","-117.13025036233063"
"230","MTS_12822","12822","12822","30th St & Monroe Av","32.75941590","-117.13007808","MTS","1.00000000","F-N/B","","","32.75941113099983","-117.13006618249992"
"231","MTS_12093","12093","12093","30th St & North Park Wy","32.74715990","-117.13013455","MTS","1.00000000","F-S/B","","","32.747155133021536","-117.13012265337267"
"232","MTS_12479","12479","12479","30th St & North Park Wy","32.74722434","-117.12996281","MTS","1.00000000","N-N/B","","","32.74721957304677","-117.12995091334409"
"233","MTS_12082","12082","12082","30th St & Polk Av","32.75199656","-117.13023490","MTS","1.00000000","F-S/B","","","32.751991792066335","-117.13022300331176"
"234","MTS_12819","12819","12819","30th St & Polk Av","32.75245960","-117.13005413","MTS","1.00000000","F-N/B","","","32.75245483181331","-117.13004223241529"
"235","MTS_11697","11697","11697","30th St & Redwood St","32.73753465","-117.12935874","MTS","1.00000000","N-S/B","30red","","32.737529883470536","-117.12934684390584"
"236","MTS_12830","12830","12830","30th St & Redwood St","32.73765660","-117.12921686","MTS","1.00000000","F-N/B","30red","","32.737651833899676","-117.12920496414696"
"237","MTS_11693","11693","11693","30th St & University Av","32.74863258","-117.13020780","MTS","1.00000000","N-S/B","30uni","","32.74862781207188","-117.13019590383334"
"238","MTS_12824","12824","12824","30th St & University Av","32.74879854","-117.13005985","MTS","1.00000000","F-N/B","30uniN","","32.74879377253082","-117.13004795263872"
"239","MTS_75072","75072","75072","32nd/Commercial St Station","32.70576993","-117.12475301","MTS","0E-8","","32nS","32nS","32.70576516783528","-117.12474111693372"
"240","MTS_75073","75073","75073","32nd/Commercial St Station","32.70577705","-117.12452390","MTS","0E-8","","32nS","32nS","32.70577228771321","-117.12451200723945"
"241","MTS_10563","10563","10563","36th St & Imperial Av","32.70530322","-117.11689209","MTS","0E-8","F-S/B","","","32.70529845794912","-117.11688019829252"
"242","MTS_12212","12212","12212","3rd Av & Anita St","32.59827629","-117.06461148","MTS","1.00000000","F-S/B","","","32.59827153740355","-117.06459960462283"
"243","MTS_12939","12939","12939","3rd Av & Anita St","32.59877277","-117.06434657","MTS","1.00000000","F-N/B","","","32.598768017345975","-117.06433469528463"
"244","MTS_99019","99019","99019","3rd Av & B St","32.71758892","-117.16188403","MTS","1.00000000","N-N/B","3rdbst","","32.71758415822675","-117.1618721300278"
"245","MTS_11754","11754","11754","3rd Av & F St","32.64110262","-117.07997065","MTS","1.00000000","N-S/B","3rdf","","32.641097862886284","-117.07995876991085"
"246","MTS_12903","12903","12903","3rd Av & F St","32.64121468","-117.07982000","MTS","1.00000000","F-N/B","3rdf","","32.64120992323931","-117.07980811932413"
"247","MTS_12180","12180","12180","3rd Av & G St","32.63710591","-117.07835632","MTS","1.00000000","F-S/B","","","32.637101153364526","-117.07834443969207"
"248","MTS_12547","12547","12547","3rd Av & G St","32.63764744","-117.07834516","MTS","1.00000000","N-N/B","","","32.63764268319812","-117.07833327951586"
"249","MTS_12189","12189","12189","3rd Av & H St","32.63372560","-117.07708052","MTS","1.00000000","F-S/B","","","32.63372084322919","-117.07706864080002"
"250","MTS_12553","12553","12553","3rd Av & H St","32.63419907","-117.07697128","MTS","1.00000000","N-N/B","","","32.6341943134119","-117.0769594004184"
"251","MTS_12918","12918","12918","3rd Av & I St","32.63130681","-117.07586905","MTS","1.00000000","F-N/B","","","32.63130205396005","-117.07585717106659"
"252","MTS_30299","30299","30299","3rd Av & I St","32.63031303","-117.07569409","MTS","1.00000000","F-S/B","","","32.630308273840754","-117.07568221025588"
"253","MTS_12194","12194","12194","3rd Av & J St","32.62661222","-117.07425311","MTS","1.00000000","F-S/B","3rdjst","","32.626607464854274","-117.07424123066944"
"254","MTS_12920","12920","12920","3rd Av & J St","32.62815162","-117.07462801","MTS","1.00000000","F-N/B","3rdj","","32.62814686417725","-117.07461613044906"
"255","MTS_12196","12196","12196","3rd Av & K St","32.62370916","-117.07311848","MTS","1.00000000","F-S/B","","","32.62370440463632","-117.0731066015985"
"256","MTS_12557","12557","12557","3rd Av & K St","32.62395498","-117.07293890","MTS","1.00000000","N-N/B","","","32.62395022485279","-117.07292702219112"
"257","MTS_11769","11769","11769","3rd Av & L St","32.62079774","-117.07200009","MTS","1.00000000","N-S/B","","","32.62079298456858","-117.07198821201322"
"258","MTS_12924","12924","12924","3rd Av & L St","32.62099967","-117.07180711","MTS","1.00000000","F-N/B","","","32.62099491540664","-117.07179523172752"
"259","MTS_12938","12938","12938","3rd Av & Main St","32.59511430","-117.06438425","MTS","1.00000000","F-N/B","mai3rd","","32.59510954827537","-117.06437237551168"
"260","MTS_99446","99446","99446","3rd Av & Montgomery St","32.59660257","-117.06459604","MTS","1.00000000","F-S/B","","","32.59659781814754","-117.06458416516907"
"261","MTS_12201","12201","12201","3rd Av & Moss St","32.61610202","-117.07013448","MTS","2.00000000","F-S/B","","","32.616097265310636","-117.07012260274526"
"262","MTS_12559","12559","12559","3rd Av & Moss St","32.61703030","-117.07024054","MTS","1.00000000","N-N/B","","","32.61702554573308","-117.07022866237622"
"263","MTS_11771","11771","11771","3rd Av & Naples St","32.61385413","-117.06925301","MTS","1.00000000","N-S/B","","","32.61384937600356","-117.06924113259646"
"264","MTS_12927","12927","12927","3rd Av & Naples St","32.61413548","-117.06910299","MTS","1.00000000","F-N/B","","","32.61413072629962","-117.06909111381046"
"265","MTS_12213","12213","12213","3rd Av & Orange Av","32.60129974","-117.06459393","MTS","1.00000000","F-S/B","ora3rd","","32.60129498717198","-117.06458205474775"
"266","MTS_12940","12940","12940","3rd Av & Orange Av","32.60230656","-117.06446036","MTS","1.00000000","F-N/B","ora3rd","","32.60230180627705","-117.06444848483972"
"267","MTS_11773","11773","11773","3rd Av & Oxford St","32.61056174","-117.06796898","MTS","1.00000000","N-S/B","","","32.61055698655423","-117.06795710370095"
"268","MTS_12930","12930","12930","3rd Av & Oxford St","32.61105695","-117.06789563","MTS","1.00000000","F-N/B","","","32.6110521961082","-117.06788375415607"
"269","MTS_11777","11777","11777","3rd Av & Palomar St","32.60710488","-117.06661532","MTS","1.00000000","N-S/B","3rdpal","","32.6071001260988","-117.06660344359904"
"270","MTS_12932","12932","12932","3rd Av & Palomar St","32.60719986","-117.06638565","MTS","1.00000000","F-N/B","3rdpal","","32.60719510637217","-117.06637377393486"
"271","MTS_11779","11779","11779","3rd Av & Quintard St","32.60391383","-117.06538113","MTS","1.00000000","N-S/B","","","32.603909076323184","-117.06536925406536"
"272","MTS_12935","12935","12935","3rd Av & Quintard St","32.60411579","-117.06518167","MTS","1.00000000","F-N/B","","","32.60411103686894","-117.06516979443131"
"273","MTS_60164","60164","60164","3rd St & C Av","32.69558141","-117.17298761","MTS","1.00000000","F-W/B","","","32.69557665162816","-117.17297570924799"
"274","MTS_60162","60162","60162","3rd St & E Av","32.69701242","-117.17641566","MTS","1.00000000","F-W/B","","","32.697007661656095","-117.17640375861342"
"275","MTS_60161","60161","60161","3rd St & G Av","32.69795497","-117.17863271","MTS","1.00000000","F-W/B","","","32.69795021123234","-117.17862080788056"
"276","MTS_60103","60103","60103","3rd St & I Av","32.69874606","-117.18051990","MTS","1.00000000","N-W/B","3rdi","","32.69874130082743","-117.18050799819643"
"277","MTS_88908","88908","88908","3rd St & Madison Av","32.80030414","-116.92702562","MTS","0E-8","N-S/B","","","32.80029935608381","-116.92701375417936"
"278","MTS_60163","60163","60163","3rd St & Orange Av","32.69612958","-117.17429355","MTS","1.00000000","F-W/B","","","32.69612482146109","-117.17428164875567"
"279","MTS_12508","12508","12508","40th St & Imperial Av","32.70469927","-117.10814472","MTS","2.00000000","F-N/B","","","32.70469450681812","-117.10813283073122"
"280","MTS_99481","99481","99481","40th St & University Av","32.74954555","-117.10947919","MTS","0E-8","F-S/B","i15uns","i15uns","32.74954078121563","-117.10946729682242"
"281","MTS_60622","60622","60622","41st St & Dwight St","32.74424673","-117.10706635","MTS","2.00000000","N-S/B","","","32.74424196199396","-117.10705445751869"
"282","MTS_60621","60621","60621","41st St & Landis St","32.74575308","-117.10704198","MTS","2.00000000","F-S/B","","","32.74574831214217","-117.1070300874403"
"283","MTS_12512","12512","12512","43rd St & Beta St","32.69048330","-117.10230535","MTS","1.00000000","N-N/B","","","32.69047853813096","-117.1022934615358"
"284","MTS_12860","12860","12860","43rd St & Delta St","32.68921909","-117.10228988","MTS","0E-8","F-N/B","delt43","","32.689214328005626","-117.10227799220733"
"285","MTS_99148","99148","99148","43rd St & Delta St","32.68911845","-117.10253592","MTS","1.00000000","N-S/B","delt43","","32.68911368862507","-117.1025240323066"
"286","MTS_12513","12513","12513","43rd St & Hwy 805","32.69204751","-117.10225871","MTS","1.00000000","F-N/B","","","32.692042747532476","-117.10224682216788"
"287","MTS_13432","13432","13432","43rd St & Hwy 805","32.69139698","-117.10253195","MTS","1.00000000","F-S/B","","","32.691392217623005","-117.10252006207527"
"288","MTS_12131","12131","12131","43rd St & Keeler Av","32.69404973","-117.10246659","MTS","1.00000000","F-S/B","","","32.69404496782816","-117.10245470193496"
"289","MTS_12514","12514","12514","43rd St & Keeler Av","32.69384496","-117.10226959","MTS","1.00000000","N-N/B","","","32.693840198360476","-117.10225770238121"
"290","MTS_11724","11724","11724","43rd St & National Av","32.69600300","-117.10259925","MTS","1.00000000","F-S/B","","","32.69599823716371","-117.10258736217288"
"291","MTS_12530","12530","12530","47th St & Beech St","32.72002491","-117.09340264","MTS","1.00000000","N-N/B","","","32.72002014475231","-117.09339075078906"
"292","MTS_12529","12529","12529","47th St & C St","32.71669902","-117.09343259","MTS","1.00000000","N-N/B","","","32.71669425497826","-117.09342070178435"
"293","MTS_12151","12151","12151","47th St & Craigie St","32.71406692","-117.09369351","MTS","2.00000000","F-S/B","","","32.71406215457393","-117.09368162217369"
"294","MTS_12154","12154","12154","47th St & Federal Bl","32.72088083","-117.09363843","MTS","1.00000000","F-S/B","47fed","","32.72087606407248","-117.09362654186144"
"295","MTS_12531","12531","12531","47th St & Federal Bl","32.72122318","-117.09341411","MTS","1.00000000","N-N/B","47fed","","32.721218414193004","-117.09340222048036"
"296","MTS_12527","12527","12527","47th St & Guymon St","32.71206540","-117.09338175","MTS","1.00000000","N-N/B","","","32.71206063521872","-117.09336986114809"
"297","MTS_11738","11738","11738","47th St & Hartley St","32.71025999","-117.09373184","MTS","0E-8","N-S/B","","","32.71025522535926","-117.09371995257092"
"298","MTS_12528","12528","12528","47th St & Hilltop Dr","32.71490964","-117.09344798","MTS","1.00000000","N-N/B","","","32.714904874676684","-117.09343609216545"
"299","MTS_12152","12152","12152","47th St & Hwy 94 (Overpass)","32.71785728","-117.09366801","MTS","1.00000000","F-S/B","","","32.71785251433342","-117.09365612121358"
"300","MTS_12150","12150","12150","47th St & Imperial Av","32.70337456","-117.09379597","MTS","1.00000000","F-S/B","","","32.70336979626274","-117.09378408184854"
"301","MTS_88890","88890","88890","47th St & Imperial Av","32.70373879","-117.09350656","MTS","0E-8","N-N/B","","","32.70373402619993","-117.09349467206039"
"302","MTS_12878","12878","12878","47th St & Logan Av","32.69736780","-117.09358245","MTS","1.00000000","F-N/B","47log","","32.69736303700031","-117.09357056271344"
"303","MTS_12149","12149","12149","47th St & Ocean View Bl","32.70020269","-117.09381112","MTS","1.00000000","F-S/B","","","32.700197926382344","-117.09379923336124"
"304","MTS_12880","12880","12880","47th St & Ocean View Bl","32.70072640","-117.09359184","MTS","1.00000000","F-N/B","","","32.70072163649234","-117.0935799529913"
"305","MTS_11737","11737","11737","47th St & T St","32.69828973","-117.09381231","MTS","1.00000000","F-S/B","","","32.69828496641907","-117.09380042236062"
"306","MTS_12879","12879","12879","47th St & T St","32.69885748","-117.09358371","MTS","1.00000000","F-N/B","","","32.698852716250514","-117.09357182289597"
"307","MTS_88891","88891","88891","47th St Trolley Station","32.70832954","-117.09379789","MTS","0E-8","N-S/B","","","32.70832477555672","-117.09378600215062"
"308","MTS_75070","75070","75070","47th Street Station","32.70843908","-117.09481908","MTS","0E-8","","47tS","47tS","32.70843431582306","-117.09480719223544"
"309","MTS_75071","75071","75071","47th Street Station","32.70844807","-117.09507209","MTS","0E-8","","47tS","47tS","32.70844330563027","-117.09506020191988"
"310","MTS_12035","12035","12035","4th Av & Ash St","32.71954557","-117.16117922","MTS","1.00000000","F-S/B","","","32.71954080761135","-117.16116732003321"
"311","MTS_12036","12036","12036","4th Av & B St","32.71725334","-117.16117503","MTS","1.00000000","M-Street-S/B","4thB","","32.71724857821163","-117.16116313048002"
"312","MTS_12028","12028","12028","4th Av & Brookes Av","32.74314665","-117.16160865","MTS","1.00000000","F-S/B","","","32.743141885202974","-117.16159674796347"
"313","MTS_11743","11743","11743","4th Av & C St","32.65112440","-117.08834167","MTS","1.00000000","N-S/B","","","32.65111964201596","-117.0883297872275"
"314","MTS_13179","13179","13179","4th Av & C St","32.65137332","-117.08811337","MTS","1.00000000","F-N/B","3rdglo","","32.65136856173482","-117.08810148782405"
"315","MTS_12032","12032","12032","4th Av & Cedar St","32.72173583","-117.16122137","MTS","1.00000000","F-S/B","","","32.72173106786329","-117.16120946898124"
"316","MTS_11745","11745","11745","4th Av & D St","32.64723753","-117.08679734","MTS","1.00000000","N-S/B","","","32.64723277283506","-117.08678545791958"
"317","MTS_12889","12889","12889","4th Av & D St","32.64750511","-117.08665368","MTS","1.00000000","F-N/B","","","32.64750035249149","-117.08664179758716"
"318","MTS_11642","11642","11642","4th Av & Date St","32.72320918","-117.16120084","MTS","1.00000000","N-S/B","","","32.723204417924705","-117.16118893930627"
"319","MTS_12539","12539","12539","4th Av & E St","32.64473358","-117.08559434","MTS","1.00000000","F-N/B","","","32.644728822707414","-117.08558245818274"
"320","MTS_30344","30344","30344","4th Av & F St","32.63956735","-117.08383350","MTS","1.00000000","F-S/B","","","32.63956259317002","-117.08382161880174"
"321","MTS_11643","11643","11643","4th Av & Fir St","32.72529240","-117.16122238","MTS","1.00000000","N-S/B","","","32.7252876364926","-117.1612104791692"
"322","MTS_11748","11748","11748","4th Av & Flower St","32.64548316","-117.08611148","MTS","1.00000000","N-S/B","","","32.64547840292351","-117.08609959794295"
"323","MTS_12034","12034","12034","4th Av & G St","32.71236153","-117.16110170","MTS","1.00000000","F-S/B","4thg","","32.712356768180925","-117.16108979983355"
"324","MTS_30345","30345","30345","4th Av & G St","32.63646269","-117.08264939","MTS","1.00000000","F-S/B","","","32.63645793365826","-117.08263750971153"
"325","MTS_30407","30407","30407","4th Av & G St","32.63660004","-117.08245741","MTS","1.00000000","N-N/B","","","32.636595282984935","-117.08244552926465"
"326","MTS_30524","30524","30524","4th Av & H St","32.63353881","-117.08131245","MTS","1.00000000","F-N/B","h4th1","","32.633534053653094","-117.08130056948721"
"327","MTS_12039","12039","12039","4th Av & Hawthorn St","32.72697159","-117.16124299","MTS","1.00000000","F-S/B","","","32.72696682688922","-117.16123108932457"
"328","MTS_12042","12042","12042","4th Av & Juniper St","32.72906042","-117.16124833","MTS","1.00000000","F-S/B","","","32.72905565617508","-117.16123642887675"
"329","MTS_11644","11644","11644","4th Av & Laurel St","32.73153127","-117.16125762","MTS","1.00000000","N-S/B","","","32.73152650619343","-117.16124571887205"
"330","MTS_30468","30468","30468","4th Av & Main St","32.59525482","-117.06889206","MTS","1.00000000","F-N/B","4thmai","","32.59525006793079","-117.0688801840644"
"331","MTS_30467","30467","30467","4th Av & Montgomery St","32.59720622","-117.06889393","MTS","1.00000000","F-N/B","","","32.5972014674912","-117.06888205423482"
"332","MTS_12040","12040","12040","4th Av & Nutmeg St","32.73326268","-117.16127878","MTS","1.00000000","F-S/B","","","32.733257916636305","-117.16126687846591"
"333","MTS_30549","30549","30549","4th Av & Park Wy","32.63840936","-117.08315015","MTS","1.00000000","F-N/B","","","32.63840460301154","-117.08313826868154"
"334","MTS_12037","12037","12037","4th Av & Quince St","32.73678491","-117.16135195","MTS","1.00000000","N-S/B","","","32.736780145735686","-117.16134004844163"
"335","MTS_12025","12025","12025","4th Av & Robinson Av","32.74661234","-117.16163475","MTS","1.00000000","F-S/B","","","32.746607574656466","-117.16162284785757"
"336","MTS_30003","30003","30003","4th Av & Scripps Hospital","32.63434804","-117.08178977","MTS","1.00000000","M-Street-S/B","","","32.63434328411706","-117.08177789005535"
"337","MTS_11645","11645","11645","4th Av & Spruce St","32.73884183","-117.16132346","MTS","1.00000000","N-S/B","","","32.73883706570055","-117.1613115581839"
"338","MTS_30362","30362","30362","4th Av & Tremont St","32.59746820","-117.06917559","MTS","1.00000000","F-S/B","","","32.597463447902264","-117.06916371490661"
"339","MTS_12027","12027","12027","4th Av & University Av","32.74775835","-117.16164986","MTS","1.00000000","F-S/B","4thuni","","32.74775358399076","-117.16163795743256"
"340","MTS_12041","12041","12041","4th Av & Upas St","32.74061451","-117.16133855","MTS","1.00000000","F-S/B","","","32.74060974486468","-117.16132664903253"
"341","MTS_30302","30302","30302","4th Av & Zenith St","32.59598098","-117.06922023","MTS","1.00000000","N-S/B","","","32.59597622779218","-117.06920835495819"
"342","MTS_89025","89025","89025","4th Ave & C St","32.71684690","-117.16116693","MTS","0E-8","N-S/B","4thc","","32.716842138284136","-117.16115502976142"
"343","MTS_60005","60005","60005","4th St & Adella Ln","32.69272854","-117.17077023","MTS","1.00000000","N-E/B","","","32.69272378152308","-117.17075833020965"
"344","MTS_60004","60004","60004","4th St & B Av","32.69337915","-117.17234697","MTS","1.00000000","F-E/B","","","32.693374391193046","-117.17233506963133"
"345","MTS_50013","50013","50013","4th St & Drexel Av","32.68735067","-117.07923464","MTS","1.00000000","N-E/B","","","32.68734590735251","-117.07922275535901"
"346","MTS_60056","60056","60056","4th St & E Av","32.69528574","-117.17686234","MTS","1.00000000","F-E/B","","","32.695280981118685","-117.17685043917868"
"347","MTS_50042","50042","50042","4th St & Euclid Av","32.68633414","-117.08284247","MTS","1.00000000","F-E/B","4theu1","","32.686329377173884","-117.08283058491264"
"348","MTS_59018","59018","59018","4th St & Euclid Av","32.68621318","-117.08406662","MTS","2.00000000","F-W/B","4theuc","","32.686208417914386","-117.08405473527401"
"349","MTS_50030","50030","50030","4th St & I Av","32.68186008","-117.09889078","MTS","2.00000000","F-E/B","","","32.6818553190602","-117.09887889354094"
"350","MTS_50032","50032","50032","4th St & K Av","32.68245177","-117.09678074","MTS","2.00000000","F-E/B","","","32.68244700908181","-117.09676885296341"
"351","MTS_99305","99305","99305","4th St & K Av","32.68258034","-117.09686972","MTS","2.00000000","N-W/B","","","32.68257557864275","-117.09685783337274"
"352","MTS_99304","99304","99304","4th St & Laurel Av","32.68303390","-117.09525882","MTS","1.00000000","N-W/B","","","32.68302913857466","-117.09524693292154"
"353","MTS_60057","60057","60057","4th St & Orange Av","32.69420010","-117.17429608","MTS","1.00000000","F-E/B","","","32.69419534181006","-117.17428417925109"
"354","MTS_50006","50006","50006","4th St & Palm Av","32.68397920","-117.09126708","MTS","1.00000000","F-E/B","","","32.68397443844454","-117.09125519403256"
"355","MTS_60055","60055","60055","4th St & Palm Av","32.69597386","-117.17855658","MTS","1.00000000","F-E/B","","","32.69596910122083","-117.17854467770435"
"356","MTS_99303","99303","99303","4th St & Palm Av","32.68417427","-117.09127869","MTS","1.00000000","N-W/B","","","32.6841695086195","-117.09126680451962"
"357","MTS_50041","50041","50041","4th St & U Av","32.68530337","-117.08650858","MTS","1.00000000","F-E/B","","","32.68529860783193","-117.08649669474778"
"358","MTS_99302","99302","99302","4th St & U Av","32.68536270","-117.08708116","MTS","1.00000000","F-W/B","","","32.685357937783536","-117.08706927460084"
"359","MTS_12551","12551","12551","54th St & 54th Pl","32.75129674","-117.07929982","MTS","0E-8","N-N/B","","","32.75129196979762","-117.07928793180568"
"360","MTS_12909","12909","12909","54th St & College Grove Dr","32.73613764","-117.07946935","MTS","1.00000000","F-N/B","","","32.73613287127905","-117.07945746276161"
"361","MTS_12187","12187","12187","54th St & El Cajon Bl","32.75738899","-117.07947426","MTS","1.00000000","F-S/B","54elcs","","32.757384219113014","-117.07946237056441"
"362","MTS_12914","12914","12914","54th St & El Cajon Bl","32.75830609","-117.07919991","MTS","1.00000000","F-N/B","54elcn","","32.75830131924887","-117.07918802132716"
"363","MTS_12172","12172","12172","54th St & Haniman St","32.72578842","-117.08330635","MTS","1.00000000","F-S/B","","","32.725783653003205","-117.0832944624942"
"364","MTS_11760","11760","11760","54th St & Krenning St","32.73613024","-117.07975220","MTS","1.00000000","N-S/B","","","32.73612547146114","-117.07974031221778"
"365","MTS_11759","11759","11759","54th St & Laurel St","32.73094605","-117.07983020","MTS","2.00000000","N-S/B","","","32.730941281842995","-117.07981831237682"
"366","MTS_12907","12907","12907","54th St & Laurel St","32.73097532","-117.07956383","MTS","2.00000000","F-N/B","","","32.73097055222881","-117.07955194347997"
"367","MTS_12183","12183","12183","54th St & Lea St","32.74541297","-117.07959569","MTS","2.00000000","F-S/B","","","32.74540820072486","-117.07958380188617"
"368","MTS_12910","12910","12910","54th St & Lea St","32.74657735","-117.07933345","MTS","2.00000000","F-N/B","","","32.7465725798384","-117.07932156183514"
"369","MTS_12550","12550","12550","54th St & Marvin St","32.74121722","-117.07941634","MTS","2.00000000","M-Street-N/B","","","32.741212450817976","-117.0794044530915"
"370","MTS_12179","12179","12179","54th St & Nutmeg St","32.73362074","-117.07977084","MTS","2.00000000","F-S/B","","","32.73361597190493","-117.07975895238545"
"371","MTS_12908","12908","12908","54th St & Nutmeg St","32.73398522","-117.07952063","MTS","1.00000000","M-Street-N/B","","","32.73398045220726","-117.07950874225759"
"372","MTS_11756","11756","11756","54th St & Pirotte Dr","32.72896620","-117.08037736","MTS","1.00000000","N-S/B","","","32.72896143225144","-117.08036547293914"
"373","MTS_12545","12545","12545","54th St & Pirotte Dr","32.72859751","-117.08043566","MTS","1.00000000","N-N/B","","","32.72859274319622","-117.08042377297167"
"374","MTS_11761","11761","11761","54th St & Redwood St","32.73787296","-117.07972633","MTS","1.00000000","N-S/B","","","32.73786819163338","-117.07971444216874"
"375","MTS_12549","12549","12549","54th St & Redwood St","32.73753409","-117.07943696","MTS","1.00000000","N-N/B","","","32.737529321735074","-117.07942507258151"
"376","MTS_12182","12182","12182","54th St & Streamview Dr","32.74213649","-117.07963639","MTS","2.00000000","M-Street-S/B","54stv","","32.74213172080037","-117.07962450274837"
"377","MTS_12548","12548","12548","54th St & Streamview Dr","32.74288868","-117.07936053","MTS","2.00000000","N-N/B","54stv","","32.742883910682394","-117.07934864239294"
"378","MTS_12185","12185","12185","54th St & Trojan Av","32.75434603","-117.07953018","MTS","1.00000000","F-S/B","","","32.75434125937934","-117.07951829145384"
"379","MTS_12912","12912","12912","54th St & Trojan Av","32.75521403","-117.07920008","MTS","1.00000000","F-N/B","","","32.75520925998259","-117.0791881915477"
"380","MTS_12186","12186","12186","54th St & University Av","32.74823310","-117.07957020","MTS","1.00000000","F-S/B","54univ","","32.748228330574264","-117.07955831188374"
"381","MTS_12552","12552","12552","54th St & University Av","32.74807569","-117.07927275","MTS","1.00000000","N-N/B","54univ","","32.74807092002476","-117.07926086115158"
"382","MTS_12913","12913","12913","54th St & University Av","32.75010505","-117.07925087","MTS","1.00000000","F-N/B","","","32.750100279887896","-117.07923898172483"
"383","MTS_99495","99495","99495","54th St & Westover Pl","32.72491114","-117.08378904","MTS","0E-8","F-N/B","","","32.72490637297407","-117.08377715340623"
"384","MTS_11767","11767","11767","58th St & Mira Flores Dr","32.70031391","-117.07329088","MTS","1.00000000","N-S/B","","","32.70030914500878","-117.07327899646477"
"385","MTS_12923","12923","12923","58th St & Mira Flores Dr","32.70022125","-117.07317299","MTS","1.00000000","F-N/B","","","32.700216485305496","-117.07316110660719"
"386","MTS_12765","12765","12765","5th Av & B St","32.71803122","-117.16005161","MTS","1.00000000","F-N/B","b5th","","32.7180264579071","-117.16003971007338"
"387","MTS_12766","12766","12766","5th Av & Beech St","32.72126550","-117.16015004","MTS","0E-8","F-N/B","","","32.72126073704065","-117.16013813972782"
"388","MTS_12429","12429","12429","5th Av & Brookes Av","32.74323347","-117.16027288","MTS","1.00000000","N-N/B","","","32.743228705097316","-117.16026097803318"
"389","MTS_12434","12434","12434","5th Av & C St","32.71656915","-117.16003327","MTS","1.00000000","N-N/B","5thc","","32.71656438853861","-117.16002137046152"
"390","MTS_12427","12427","12427","5th Av & Elm St","32.72392918","-117.16009951","MTS","1.00000000","N-N/B","","","32.72392441699153","-117.16008760951527"
"391","MTS_12771","12771","12771","5th Av & Hawthorn St","32.72745521","-117.16014243","MTS","0E-8","F-N/B","","","32.72745044672008","-117.16013052989798"
"392","MTS_12770","12770","12770","5th Av & Juniper St","32.72954404","-117.16014774","MTS","0E-8","F-N/B","","","32.72953927679999","-117.1601358385242"
"393","MTS_12767","12767","12767","5th Av & Laurel St","32.73152516","-117.16022348","MTS","1.00000000","F-N/B","","","32.731520396586596","-117.16021157895644"
"394","MTS_12772","12772","12772","5th Av & Nutmeg St","32.73375181","-117.16017494","MTS","0E-8","F-N/B","","","32.733747045825545","-117.16016303916825"
"395","MTS_12432","12432","12432","5th Av & Pennsylvania Av","32.74505579","-117.16026569","MTS","1.00000000","N-N/B","","","32.74505102480772","-117.16025378863132"
"396","MTS_12439","12439","12439","5th Av & Quince St","32.73682571","-117.16018035","MTS","0E-8","F-N/B","","","32.73682094542831","-117.16016844869618"
"397","MTS_12430","12430","12430","5th Av & University Av","32.74847984","-117.16034659","MTS","0E-8","F-N/B","5thuni","","32.748475073975456","-117.16033468777486"
"398","MTS_12431","12431","12431","5th Av & University Av","32.74804585","-117.16030959","MTS","1.00000000","N-N/B","5thuni","","32.748041084181565","-117.16029768855083"
"399","MTS_12773","12773","12773","5th Av & Upas St","32.74087179","-117.16029434","MTS","1.00000000","F-N/B","","","32.74086702481225","-117.16028243842665"
"400","MTS_99441","99441","99441","5th Av Pier","32.70453869","-117.16155073","MTS","2.00000000","","5thlan","","32.704533929877826","-117.16153883048887"
"401","MTS_99236","99236","99236","65th St & Brooklyn Av","32.71342667","-117.05796078","MTS","1.00000000","F-N/B","","","32.71342190327565","-117.05794889783458"
"402","MTS_12966","12966","12966","70th St & El Cajon Bl","32.76912778","-117.04694893","MTS","1.00000000","F-N/B","elc70","","32.769123006119024","-117.04693704624131"
"403","MTS_12232","12232","12232","70th St & Saranac St","32.77064914","-117.04715138","MTS","1.00000000","F-S/B","elc69","","32.77064436613935","-117.04713949585228"
"404","MTS_12573","12573","12573","70th St & Saranac St","32.77066995","-117.04690758","MTS","1.00000000","N-N/B","","","32.77066517599033","-117.04689569520087"
"405","MTS_99098","99098","99098","70th St Trolley Station","32.77214037","-117.04178720","MTS","1.00000000","M-TC-Bus","70tSta","70tSta","32.77213559508607","-117.04177531678496"
"406","MTS_75032","75032","75032","70th Street Station","32.77214700","-117.04229510","MTS","0E-8","","70tS","70tS","32.77214222528605","-117.0422832162971"
"407","MTS_75033","75033","75033","70th Street Station","32.77229009","-117.04248410","MTS","0E-8","","70tS","70tS","32.77228531516609","-117.04247221642751"
"408","MTS_89026","89026","89026","7th Av & F St","32.71350376","-117.15823982","MTS","0E-8","N-N/B","","","32.713498997784264","-117.15822792027741"
"409","MTS_10600","10600","10600","8th St & C Av","32.67653456","-117.10390916","MTS","1.00000000","N-E/B","","","32.67652980011446","-117.10389727180863"
"410","MTS_13411","13411","13411","8th St & C Av","32.67683388","-117.10355133","MTS","1.00000000","N-W/B","8thnat","","32.67682912001043","-117.10353944205814"
"411","MTS_11358","11358","11358","8th St & E Av","32.67737441","-117.10169767","MTS","1.00000000","N-W/B","","","32.67736964956266","-117.10168578362541"
"412","MTS_10228","10228","10228","8th St & F Av","32.67756198","-117.10040606","MTS","1.00000000","F-E/B","","","32.67755721964415","-117.10039417251329"
"413","MTS_99486","99486","99486","8th St & Highland Av","32.67810331","-117.09922835","MTS","1.00000000","F-W/B","hig8th","","32.678098549774","-117.09921646393606"
"414","MTS_10593","10593","10593","8th St & National City Bl","32.67597280","-117.10604530","MTS","1.00000000","F-E/B","8thnat","","32.67596803984729","-117.1060334126905"
"415","MTS_75016","75016","75016","8th Street Station","32.67501911","-117.11309508","MTS","0E-8","M-TC-Train-N/B","8thS","8thS","32.67501435042104","-117.11308319119524"
"416","MTS_75017","75017","75017","8th Street Station","32.67473308","-117.11308188","MTS","0E-8","M-TC-Train-S/B","8thS","8thS","32.674728320581245","-117.11306999100287"
"417","MTS_70050","70050","70050","8th Street Transit Center","32.67446741","-117.11302728","MTS","0E-8","","8thtr1","8thtro","32.67446265080519","-117.11301539160384"
"418","MTS_70052","70052","70052","8th Street Transit Center","32.67489492","-117.11320695","MTS","0E-8","","8thtro","8thtro","32.67489016087985","-117.11319506163557"
"419","MTS_70053","70053","70053","8th Street Transit Center","32.67507851","-117.11328674","MTS","0E-8","","8thtro","8thtro","32.675073750962405","-117.1132748504011"
"420","MTS_70054","70054","70054","8th Street Transit Center","32.67533901","-117.11337379","MTS","0E-8","","8thtro","8thtro","32.67533425019684","-117.11336190088173"
"421","MTS_70055","70055","70055","8th Street Transit Center","32.67552812","-117.11345038","MTS","0E-8","","8thtro","8thtro","32.67552336095405","-117.11343849146789"
"422","MTS_12438","12438","12438","9th Av & C St","32.71648316","-117.15640723","MTS","1.00000000","N-N/B","9thc","","32.71647839814384","-117.15639533075404"
"423","MTS_60225","60225","60225","9th St & Ebony Av","32.57732889","-117.11438565","MTS","1.00000000","M-Street-S/B","","","32.57732414274509","-117.11437376752666"
"424","MTS_60396","60396","60396","9th St & Ebony Av","32.57737993","-117.11416216","MTS","1.00000000","N-N/B","imp9th","","32.577375181981424","-117.11415027744532"
"425","MTS_60278","60278","60278","9th St & Elm Av","32.58042383","-117.11436401","MTS","1.00000000","F-S/B","","","32.58041908271486","-117.11435212753787"
"426","MTS_60397","60397","60397","9th St & Elm Av","32.58099160","-117.11413909","MTS","1.00000000","F-N/B","","","32.58098685139437","-117.11412720832544"
"427","MTS_60272","60272","60272","9th St & Palm Av","32.58345804","-117.11438074","MTS","1.00000000","F-S/B","pal9th","","32.58345329143444","-117.11436885727738"
"428","MTS_10160","10160","10160","Adams Av & 30th St","32.76282743","-117.13037566","MTS","1.00000000","N-E/B","30ada","","32.76282266083921","-117.1303637625149"
"429","MTS_11297","11297","11297","Adams Av & 30th St","32.76298262","-117.13058214","MTS","1.00000000","F-W/B","30ada","","32.76297785127311","-117.13057024216612"
"430","MTS_10554","10554","10554","Adams Av & 32nd St","32.76331293","-117.12471707","MTS","1.00000000","F-E/B","","","32.763308160095065","-117.12470517372373"
"431","MTS_10937","10937","10937","Adams Av & 32nd St","32.76349122","-117.12476764","MTS","1.00000000","N-W/B","","","32.76348645056895","-117.12475574283698"
"432","MTS_10188","10188","10188","Adams Av & 33rd St","32.76329493","-117.12298956","MTS","2.00000000","N-E/B","","","32.763290161030476","-117.12297766367857"
"433","MTS_10939","10939","10939","Adams Av & 33rd St","32.76345102","-117.12268208","MTS","1.00000000","N-W/B","","","32.7634462509658","-117.12267018287402"
"434","MTS_10564","10564","10564","Adams Av & 34th St","32.76327039","-117.12023730","MTS","1.00000000","F-E/B","","","32.76326561993584","-117.12022540363836"
"435","MTS_10198","10198","10198","Adams Av & 35th St","32.76325179","-117.11741354","MTS","1.00000000","N-E/B","","","32.763247020519394","-117.11740164452797"
"436","MTS_11327","11327","11327","Adams Av & 35th St","32.76341841","-117.11756156","MTS","1.00000000","F-W/B","","","32.763413640273605","-117.11754966431141"
"437","MTS_10581","10581","10581","Adams Av & 39th St","32.76322081","-117.11084874","MTS","1.00000000","F-E/B","ada39E","","32.76321603984055","-117.11083684599268"
"438","MTS_11342","11342","11342","Adams Av & 39th St","32.76338323","-117.11120490","MTS","1.00000000","F-W/B","ada39W","","32.76337845959763","-117.11119300592713"
"439","MTS_10140","10140","10140","Adams Av & Arizona St","32.76280518","-117.13770110","MTS","1.00000000","N-E/B","","","32.76280041187255","-117.13768920121404"
"440","MTS_10900","10900","10900","Adams Av & Arizona St","32.76296473","-117.13691874","MTS","1.00000000","N-W/B","","","32.76295996160268","-117.136906841238"
"441","MTS_10224","10224","10224","Adams Av & Biona Dr","32.76317276","-117.10431631","MTS","1.00000000","N-E/B","","","32.76316798934925","-117.10430441637352"
"442","MTS_11354","11354","11354","Adams Av & Biona Dr","32.76331745","-117.10445759","MTS","1.00000000","F-W/B","adabio","","32.76331267983711","-117.1044456965224"
"443","MTS_10169","10169","10169","Adams Av & Boundary St","32.76283621","-117.12837192","MTS","1.00000000","N-E/B","","","32.762831440724376","-117.12836002221457"
"444","MTS_10577","10577","10577","Adams Av & Cherokee Av","32.76323842","-117.11383514","MTS","1.00000000","F-S/B","cheada","","32.763233649680764","-117.11382324501479"
"445","MTS_11335","11335","11335","Adams Av & Cherokee Av","32.76340212","-117.11439951","MTS","1.00000000","F-W/B","","","32.7633973503947","-117.11438761457933"
"446","MTS_10507","10507","10507","Adams Av & Florida St","32.76241147","-117.14350690","MTS","1.00000000","F-E/B","","","32.76240670216936","-117.14349499964028"
"447","MTS_11266","11266","11266","Adams Av & Florida St","32.76256161","-117.14402890","MTS","1.00000000","F-W/B","","","32.762556841565804","-117.14401699923297"
"448","MTS_10947","10947","10947","Adams Av & Hawley Bl","32.76343392","-117.11926302","MTS","1.00000000","N-W/B","","","32.763429150337345","-117.11925112326067"
"449","MTS_10540","10540","10540","Adams Av & Idaho St","32.76281820","-117.13358949","MTS","1.00000000","F-E/B","","","32.76281343113758","-117.13357759088807"
"450","MTS_10594","10594","10594","Adams Av & Kensington Dr","32.76319826","-117.10698074","MTS","1.00000000","F-E/B","","","32.76319348996802","-117.1069688454445"
"451","MTS_10973","10973","10973","Adams Av & Kensington Dr","32.76334272","-117.10715455","MTS","1.00000000","N-W/B","","","32.76333794942191","-117.10714265590497"
"452","MTS_10518","10518","10518","Adams Av & Louisiana St","32.76280365","-117.13982202","MTS","1.00000000","F-E/B","","","32.762798881126876","-117.13981012044863"
"453","MTS_11271","11271","11271","Adams Av & Panorama Dr (E)","32.76294882","-117.14027239","MTS","0E-8","F-W/B","","","32.762944051730635","-117.14026048984056"
"454","MTS_11291","11291","11291","Adams Av & Utah St","32.76297665","-117.13295675","MTS","1.00000000","F-W/B","","","32.76297188084463","-117.1329448507021"
"455","MTS_10549","10549","10549","Adams Av & W Mountain View Dr","32.76324203","-117.12657382","MTS","1.00000000","N-E/B","","","32.76323726128129","-117.12656192336188"
"456","MTS_10933","10933","10933","Adams Av & W Mountain View Dr","32.76348527","-117.12638106","MTS","1.00000000","N-W/B","","","32.76348050124743","-117.12636916218273"
"457","MTS_99228","99228","99228","Aero Dr & 9005 (Library)","32.80972008","-117.13340923","MTS","1.00000000","M-Street-E/B","","","32.80971530575767","-117.13339732820695"
"458","MTS_10496","10496","10496","Aero Dr & Aero Ct","32.80947668","-117.14809844","MTS","1.00000000","F-E/B","aeraer","","32.80947190612715","-117.14808653568025"
"459","MTS_10869","10869","10869","Aero Dr & Aero Ct","32.80972767","-117.14759978","MTS","2.00000000","N-W/B","aeraer","","32.80972289663822","-117.14758787550268"
"460","MTS_10506","10506","10506","Aero Dr & Afton Rd","32.80955187","-117.14417731","MTS","1.00000000","F-E/B","","","32.809547095891425","-117.14416540687304"
"461","MTS_13463","13463","13463","Aero Dr & Broadstone Drwy","32.80958213","-117.14189282","MTS","1.00000000","F-E/B","","","32.80957735606555","-117.141880916588"
"462","MTS_10157","10157","10157","Aero Dr & Corporate Ct","32.80974365","-117.13203598","MTS","1.00000000","N-E/B","","","32.809738875971725","-117.13202407776564"
"463","MTS_10880","10880","10880","Aero Dr & Glen H Curtis Rd","32.80978977","-117.14434571","MTS","1.00000000","N-W/B","","","32.80978499618068","-117.14433380685026"
"464","MTS_11278","11278","11278","Aero Dr & John J Montgomery Dr","32.80986103","-117.14057098","MTS","1.00000000","F-W/B","","","32.80985625536317","-117.14055907659014"
"465","MTS_99221","99221","99221","Aero Dr & Kearny Villa Rd","32.81042348","-117.15131400","MTS","1.00000000","F-W/B","","","32.81041870617926","-117.15130209515048"
"466","MTS_10546","10546","10546","Aero Dr & Ruffin Rd","32.80978978","-117.12903561","MTS","1.00000000","F-E/B","","","32.809785005710225","-117.12902370854857"
"467","MTS_10928","10928","10928","Aero Dr & Ruffin Rd","32.81005202","-117.12926281","MTS","1.00000000","M-Street-W/B","","","32.81004724491353","-117.1292509086113"
"468","MTS_99220","99220","99220","Aero Dr & Ruffin Rd","32.80873675","-117.11938156","MTS","1.00000000","F-W/B","","","32.80873197487167","-117.11936966074516"
"469","MTS_10520","10520","10520","Aero Dr & Sandrock Rd","32.80962544","-117.13969960","MTS","1.00000000","F-E/B","","","32.80962066573302","-117.13968769652914"
"470","MTS_89023","89023","89023","Aero Dr & VA Clinic","32.80966065","-117.13717464","MTS","0E-8","M-Street-E/B","","","32.8096558755734","-117.13716273658991"
"471","MTS_10191","10191","10191","Aero Dr & West Canyon Av","32.80835573","-117.12313040","MTS","1.00000000","N-E/B","","","32.80835095525327","-117.12311850003594"
"472","MTS_10941","10941","10941","Aero Dr & West Canyon Av","32.80848477","-117.12237334","MTS","1.00000000","M-Street-W/B","","","32.808479995176","-117.12236144067391"
"473","MTS_60520","60520","60520","Airway Rd & 7847","32.56054353","-116.97194890","MTS","1.00000000","M-Street-E/B","","","32.56053877701008","-116.97193704322402"
"474","MTS_60539","60539","60539","Airway Rd & 7878","32.56075616","-116.97271657","MTS","1.00000000","M-Street-W/B","","","32.56075140721757","-116.97270471310208"
"475","MTS_60518","60518","60518","Airway Rd & Britannia Bl","32.56051731","-116.97826761","MTS","1.00000000","F-E/B","airbri","","32.560512557298004","-116.97825575268152"
"476","MTS_60541","60541","60541","Airway Rd & Britannia Bl","32.56078182","-116.97815620","MTS","1.00000000","N-W/B","airbri","","32.5607770672166","-116.97814434248522"
"477","MTS_60519","60519","60519","Airway Rd & Dublin Dr","32.56062701","-116.97504901","MTS","2.00000000","F-E/B","","","32.56062225798988","-116.97503715285778"
"478","MTS_60540","60540","60540","Airway Rd & Dublin Dr","32.56078096","-116.97597523","MTS","1.00000000","F-W/B","","","32.56077620697928","-116.97596337239221"
"479","MTS_60538","60538","60538","Airway Rd & Excellante St","32.56063189","-116.96953174","MTS","1.00000000","F-W/B","","","32.560627137212016","-116.96951988363726"
"480","MTS_92260","92260","92260","Airway Rd & La Media Rd","32.56043121","-116.96197563","MTS","2.00000000","F-E/B","","","32.560426456708576","-116.96196377534893"
"481","MTS_92270","92270","92270","Airway Rd & La Media Rd","32.56066642","-116.96208041","MTS","2.00000000","N-W/B","","","32.56066166722582","-116.96206855504853"
"482","MTS_99087","99087","99087","Akins Av & Encanto/62nd St Trolley Station","32.71029635","-117.06378064","MTS","1.00000000","N-W/B","enctro","enctro","32.71029158321893","-117.06376875681251"
"483","MTS_88933","88933","88933","Alleghany St & Munda Rd","32.68129156","-117.06072938","MTS","0E-8","F-W/B","","","32.681286797711415","-117.06071750013609"
"484","MTS_50092","50092","50092","Alleghany St & Reo Dr","32.67907860","-117.06840632","MTS","1.00000000","F-W/B","","","32.67907383802665","-117.068394439177"
"485","MTS_88934","88934","88934","Alleghany St & Westport St","32.68004863","-117.06532305","MTS","0E-8","F-W/B","","","32.68004386789455","-117.06531116923716"
"486","MTS_13080","13080","13080","Alliant University","32.89539002","-117.09585620","MTS","0E-8","M-Street-W/B","intuni","","32.895385233851385","-117.09584429862342"
"487","MTS_13410","13410","13410","Allison Av & Date Av","32.76615486","-117.02215649","MTS","1.00000000","N-W/B","lamtrw","","32.766150085357054","-117.0221446098983"
"488","MTS_10326","10326","10326","Allison Av & Palm Av","32.76591530","-117.01958773","MTS","1.00000000","N-E/B","allpal","","32.765910524868","-117.01957585123527"
"489","MTS_40383","40383","40383","Allison Av & Pine St","32.76611671","-117.01769947","MTS","1.00000000","F-W/B","allpin","","32.76611193434018","-117.0176875915977"
"490","MTS_10324","10324","10324","Allison Av & Spring St","32.76596372","-117.02151722","MTS","1.00000000","N-E/B","lamtre","","32.76595894515147","-117.02150534079584"
"491","MTS_40972","40972","40972","Alpine Bl & Alpine MHP","32.83535622","-116.76208535","MTS","2.00000000","F-W/B","","","32.83535142367262","-116.76207351094888"
"492","MTS_40943","40943","40943","Alpine Bl & Alpine Oaks MHP","32.83314624","-116.73908880","MTS","2.00000000","M-Street-E/B","","","32.83314144273077","-116.73907696460213"
"493","MTS_40974","40974","40974","Alpine Bl & Alpine Oaks MHP","32.83350072","-116.74104667","MTS","2.00000000","M-Street-W/B","","","32.833495922637375","-116.74103483486053"
"494","MTS_40241","40241","40241","Alpine Bl & Arnold Wy","32.83538515","-116.76636008","MTS","1.00000000","F-E/B","alparn","","32.83538035329626","-116.76634823967824"
"495","MTS_40242","40242","40242","Alpine Bl & Bay Meadows Dr","32.83477645","-116.75872551","MTS","1.00000000","F-E/B","","","32.834771653534354","-116.75871367113578"
"496","MTS_40973","40973","40973","Alpine Bl & Bay Meadows Dr","32.83509145","-116.75965191","MTS","1.00000000","F-W/B","","","32.835086653088744","-116.75964007145163"
"497","MTS_40912","40912","40912","Alpine Bl & Louise Dr","32.83464447","-116.75673236","MTS","2.00000000","N-E/B","","","32.83463967395001","-116.75672052189375"
"498","MTS_41006","41006","41006","Alpine Bl & Louise Dr","32.83483379","-116.75681158","MTS","1.00000000","F-W/B","","","32.83482899363647","-116.75679974154369"
"499","MTS_40098","40098","40098","Alpine Bl & Peutz Valley Rd","32.84775401","-116.80726974","MTS","2.00000000","N-E/B","","","32.84774921377857","-116.80725789153459"
"500","MTS_40488","40488","40488","Alpine Bl & Peutz Valley Rd","32.84797365","-116.80732323","MTS","2.00000000","F-W/B","","","32.847968854716726","-116.80731138210773"
"501","MTS_40911","40911","40911","Alpine Bl & Ramsey Rd","32.83518257","-116.76160968","MTS","1.00000000","N-E/B","","","32.83517777347051","-116.76159784120185"
"502","MTS_40100","40100","40100","Alpine Bl & Rock Terrace Rd","32.83447923","-116.75412699","MTS","2.00000000","N-E/B","","","32.8344744329558","-116.75411515235949"
"503","MTS_40491","40491","40491","Alpine Bl & Rock Terrace Rd","32.83467055","-116.75438852","MTS","1.00000000","F-W/B","","","32.834665753512056","-116.75437668213523"
"504","MTS_40101","40101","40101","Alpine Bl & South Grade Rd","32.83442945","-116.75048604","MTS","1.00000000","N-E/B","alpalb","","32.834424652671565","-116.750474202184"
"505","MTS_99395","99395","99395","Alpine Bl & South Grade Rd","32.83477651","-116.75145198","MTS","1.00000000","N-N/B","albalp","","32.8347717135918","-116.75144014287248"
"506","MTS_40099","40099","40099","Alpine Bl & Tavern Rd","32.83768718","-116.77961758","MTS","1.00000000","N-E/B","alpshp","","32.837682384059605","-116.77960573770103"
"507","MTS_40489","40489","40489","Alpine Bl & Tavern Rd","32.83789979","-116.77874634","MTS","1.00000000","F-W/B","","","32.83789499346266","-116.77873449728624"
"508","MTS_75028","75028","75028","Amaya Drive Station","32.78540990","-117.00186302","MTS","0E-8","","amaS","amaS","32.78540512150747","-117.00185114249571"
"509","MTS_75029","75029","75029","Amaya Drive Station","32.78541311","-117.00160600","MTS","0E-8","","amaS","amaS","32.7854083317769","-117.00159412256816"
"510","MTS_75084","75084","75084","America Plaza Station","32.71638588","-117.16881107","MTS","0E-8","","apzS","apzS","32.716381118910704","-117.1687991686966"
"511","MTS_75085","75085","75085","America Plaza Station","32.71662690","-117.16881390","MTS","0E-8","","apzS","apzS","32.716622138562","-117.16880199895826"
"512","MTS_99062","99062","99062","Anchorage Ln & Shelter Island Dr","32.72009413","-117.22807923","MTS","2.00000000","F-W/B","sheanc","","32.720089371661246","-117.2280673180796"
"513","MTS_30020","30020","30020","Anita St & 4th Av","32.59841677","-117.07036302","MTS","1.00000000","N-E/B","","","32.59841201795214","-117.0703511442565"
"514","MTS_39003","39003","39003","Anita St & 4th Av","32.59854743","-117.07014019","MTS","1.00000000","F-W/B","","","32.59854267835476","-117.07012831432398"
"515","MTS_30602","30602","30602","Anita St & 501","32.59841997","-117.07235663","MTS","1.00000000","M-Street-E/B","","","32.59841521811675","-117.07234475338679"
"516","MTS_30526","30526","30526","Anita St & 502","32.59856426","-117.07297489","MTS","1.00000000","M-Street-W/B","","","32.598559508087256","-117.07296301298904"
"517","MTS_30086","30086","30086","Anita St & Broadway","32.59840931","-117.07559368","MTS","1.00000000","F-E/B","","","32.59840455809593","-117.07558180340509"
"518","MTS_30645","30645","30645","Anita St & Broadway","32.59856086","-117.07471519","MTS","1.00000000","N-W/B","","","32.5985561079457","-117.0747033131215"
"519","MTS_99478","99478","99478","Armstrong Pl & Mesa College Dr","32.80424599","-117.16349419","MTS","1.00000000","F-E/B","mescol","","32.80424121732969","-117.16348228303434"
"520","MTS_12023","12023","12023","Armstrong St & Armstrong Pl","32.80508180","-117.16234425","MTS","1.00000000","N-S/B","","","32.80507702721391","-117.16233234352578"
"521","MTS_12419","12419","12419","Armstrong St & Armstrong Pl","32.80453874","-117.16218892","MTS","1.00000000","F-N/B","","","32.80453396776204","-117.16217701417901"
"522","MTS_12420","12420","12420","Armstrong St & Baltic St","32.80563821","-117.16218078","MTS","1.00000000","N-N/B","","","32.80563343777073","-117.16216887365385"
"523","MTS_12421","12421","12421","Armstrong St & Beagle St","32.80763831","-117.16154732","MTS","1.00000000","N-N/B","","","32.80763353679437","-117.16153541369172"
"524","MTS_75024","75024","75024","Arnele Avenue Station","32.80466109","-116.97568505","MTS","0E-8","","arnS","arnS","32.80465630843615","-116.97567317577307"
"525","MTS_75025","75025","75025","Arnele Avenue Station","32.80448906","-116.97577313","MTS","0E-8","","arnS","arnS","32.80448427802328","-116.97576125575284"
"526","MTS_40333","40333","40333","Arnold Wy & Alpine Bl","32.83540656","-116.76715456","MTS","2.00000000","F-W/B","alparn","","32.83540176376968","-116.76714271956486"
"527","MTS_40240","40240","40240","Arnold Wy & Alpine Grove Ln","32.83579015","-116.77330987","MTS","1.00000000","F-E/B","","","32.835785353487225","-116.77329802845395"
"528","MTS_40331","40331","40331","Arnold Wy & Alpine Grove Ln","32.83594670","-116.77333684","MTS","2.00000000","N-W/B","","","32.835941904111365","-116.77332499897265"
"529","MTS_40910","40910","40910","Arnold Wy & Alpine Village Apts","32.83590258","-116.77011680","MTS","2.00000000","M-Street-E/B","","","32.83589778362133","-116.77010495949452"
"530","MTS_41005","41005","41005","Arnold Wy & Alpine Village Apts","32.83618415","-116.77047984","MTS","2.00000000","M-Street-W/B","","","32.83617935383679","-116.77046799930703"
"531","MTS_40332","40332","40332","Arnold Wy & Olivewood Ln","32.83508981","-116.76862747","MTS","2.00000000","N-E/B","","","32.835085014427804","-116.76861563018188"
"532","MTS_40490","40490","40490","Arnold Wy & Olivewood Ln","32.83525470","-116.76863169","MTS","1.00000000","F-W/B","","","32.83524990416827","-116.76861984991336"
"533","MTS_11154","11154","11154","Arriba St & Regents Rd","32.86151534","-117.22343422","MTS","1.00000000","F-W/B","","","32.86151056408647","-117.22342229855794"
"534","MTS_97004","97004","97004","Ash St & Pacific Hwy","32.72000249","-117.17181599","MTS","1.00000000","F-W/B","ashpac","","32.719997728152244","-117.17180408773028"
"535","MTS_40255","40255","40255","Aubrey St & Community Rd","32.97122332","-117.04023535","MTS","1.00000000","N-W/B","","","32.97121852109602","-117.04022345220983"
"536","MTS_40366","40366","40366","Aubrey St & Midland Rd","32.97123573","-117.03656397","MTS","1.00000000","F-W/B","","","32.971230931763905","-117.03655207332494"
"537","MTS_40361","40361","40361","Aubrey St & York Av","32.97122802","-117.03863767","MTS","1.00000000","N-W/B","","","32.971223222118894","-117.03862577275461"
"538","MTS_40434","40434","40434","Austin Dr & Calavo Dr","32.73332551","-116.96351459","MTS","1.00000000","F-W/B","","","32.73332073597163","-116.96350272273995"
"539","MTS_40429","40429","40429","Austin Dr & Moorpark Ct","32.73187551","-116.96520678","MTS","1.00000000","F-W/B","","","32.73187073655003","-116.9651949134905"
"540","MTS_40989","40989","40989","Austin Dr & Via Orange Wy","32.73093807","-116.96902648","MTS","1.00000000","N-W/B","","","32.730933296825704","-116.96901461182946"
"541","MTS_39012","39012","39012","Auto Park Dr & Brandywine Av","32.59503015","-117.02982175","MTS","1.00000000","F-W/B","","","32.595025395956","-117.02980988106273"
"542","MTS_39006","39006","39006","Auto Park Dr & Oleander Av","32.59472482","-117.03246190","MTS","1.00000000","M-Street-E/B","","","32.59472006580452","-117.03245003056985"
"543","MTS_39013","39013","39013","Auto Park Dr & Oleander Av","32.59504694","-117.03194203","MTS","0E-8","M-Street-W/B","","","32.595042185919446","-117.03193016137864"
"544","MTS_59009","59009","59009","Ava St & Division St","32.69368921","-117.06928954","MTS","1.00000000","N-N/B","divava","","32.693684445883065","-117.06927765755896"
"545","MTS_92263","92263","92263","Avenida Costa Este & Avenida De La Fuente","32.55590827","-116.95511333","MTS","1.00000000","F-S/B","","","32.55590351652914","-116.95510147624967"
"546","MTS_92267","92267","92267","Avenida Costa Este & Avenida De La Fuente","32.55609330","-116.95495903","MTS","1.00000000","N-N/B","","","32.556088546962776","-116.95494717674177"
"547","MTS_92262","92262","92262","Avenida Costa Norte & Avenida Costa Azul","32.55892648","-116.95695811","MTS","1.00000000","M-Street-E/B","","","32.55892172718432","-116.9569462559207"
"548","MTS_92268","92268","92268","Avenida Costa Norte & Avenida Costa Azul","32.55907753","-116.95697879","MTS","1.00000000","N-W/B","aveave","","32.559072776646914","-116.95696693694549"
"549","MTS_40244","40244","40244","B St & 5th Av","32.71787302","-117.15988741","MTS","1.00000000","N-W/B","b5th","","32.71786825759178","-117.15987551035136"
"550","MTS_10513","10513","10513","Balboa Av & 8611 (Kyocera)","32.82054764","-117.14165887","MTS","2.00000000","N-E/B","","","32.8205428651167","-117.14164696621535"
"551","MTS_13074","13074","13074","Balboa Av & 8808","32.82103293","-117.13724660","MTS","1.00000000","M-Street-W/B","ba8808","","32.8210281537418","-117.13723469730394"
"552","MTS_13462","13462","13462","Balboa Av & 8865","32.82059843","-117.13766212","MTS","1.00000000","M-Street-E/B","","","32.82059365517523","-117.1376502162271"
"553","MTS_13041","13041","13041","Balboa Av & 8965","32.82128162","-117.13553040","MTS","1.00000000","M-Street-E/B","","","32.821276843701526","-117.13551849656443"
"554","MTS_11286","11286","11286","Balboa Av & 9020","32.82197402","-117.13479519","MTS","1.00000000","M-Street-W/B","","","32.821969244525654","-117.13478328671084"
"555","MTS_11224","11224","11224","Balboa Av & Cannington Dr","32.82043983","-117.17205713","MTS","1.00000000","F-W/B","","","32.820435056832565","-117.1720452205126"
"556","MTS_10837","10837","10837","Balboa Av & Charger Bl","32.82092165","-117.16640804","MTS","1.00000000","M-Street-W/B","balcha","","32.82091687612147","-117.16639613184061"
"557","MTS_10421","10421","10421","Balboa Av & Clairemont Dr","32.81161808","-117.20055798","MTS","1.00000000","F-E/B","clabal","","32.811613308783706","-117.20054606636101"
"558","MTS_11182","11182","11182","Balboa Av & Clairemont Dr","32.81189465","-117.20176198","MTS","1.00000000","F-W/B","clabal","","32.8118898790223","-117.20175006603836"
"559","MTS_11252","11252","11252","Balboa Av & Convoy St","32.82193826","-117.15565057","MTS","1.00000000","F-W/B","cnbalW","","32.82193348483132","-117.15563866299547"
"560","MTS_99224","99224","99224","Balboa Av & Convoy St","32.82164926","-117.15420557","MTS","1.00000000","F-E/B","cnbalE","","32.821644484670514","-117.15419366337568"
"561","MTS_10441","10441","10441","Balboa Av & Genesee Av","32.81935606","-117.18132596","MTS","1.00000000","F-E/B","balgen","","32.81935128667473","-117.18131404955105"
"562","MTS_11209","11209","11209","Balboa Av & Genesee Av","32.81932025","-117.18242905","MTS","1.00000000","F-W/B","balgen","","32.81931547663838","-117.18241713927321"
"563","MTS_13002","13002","13002","Balboa Av & Gerald Griffin Drwy","32.82159947","-117.15799404","MTS","1.00000000","F-E/B","","","32.82159469594189","-117.15798213347651"
"564","MTS_10460","10460","10460","Balboa Av & Hathaway St","32.82054445","-117.16649525","MTS","1.00000000","F-E/B","balhat","","32.820539676315306","-117.16648334185365"
"565","MTS_99225","99225","99225","Balboa Av & Mercury St","32.82163871","-117.14962873","MTS","1.00000000","N-E/B","","","32.82163393546879","-117.149616825302"
"566","MTS_99226","99226","99226","Balboa Av & Mercury St","32.82192576","-117.15021759","MTS","1.00000000","F-W/B","","","32.82192098449029","-117.15020568393922"
"567","MTS_10045","10045","10045","Balboa Av & Moraga Av","32.80774389","-117.21069667","MTS","2.00000000","M-Street-E/B","","","32.80773912002909","-117.21068475510943"
"568","MTS_11168","11168","11168","Balboa Av & Moraga Av","32.80789575","-117.21131345","MTS","1.00000000","F-W/B","","","32.8078909798523","-117.21130153482468"
"569","MTS_11216","11216","11216","Balboa Av & Mt Abernathy Av","32.82047985","-117.17662446","MTS","1.00000000","F-W/B","","","32.82047507594957","-117.17661255000088"
"570","MTS_10451","10451","10451","Balboa Av & Mt Albertine Av","32.82016881","-117.17117542","MTS","1.00000000","F-E/B","","","32.820164036390764","-117.17116351076155"
"571","MTS_10446","10446","10446","Balboa Av & Mt Alifan Dr","32.82016137","-117.17547857","MTS","1.00000000","F-E/B","","","32.82015659630407","-117.1754666599135"
"572","MTS_10437","10437","10437","Balboa Av & Mt Everest Bl","32.81807524","-117.18496454","MTS","1.00000000","F-E/B","","","32.81807046794958","-117.18495262829013"
"573","MTS_11202","11202","11202","Balboa Av & Mt Everest Bl","32.81804721","-117.18576172","MTS","1.00000000","F-W/B","","","32.818042436876574","-117.18574980874999"
"574","MTS_89010","89010","89010","Balboa Av & Olney St","32.80139174","-117.22927449","MTS","0E-8","F-E/B","","","32.801386971367805","-117.22926257216936"
"575","MTS_89011","89011","89011","Balboa Av & Olney St","32.80162380","-117.22933272","MTS","0E-8","N-W/B","","","32.801619031297996","-117.22932080188966"
"576","MTS_13072","13072","13072","Balboa Av & Pennisi Dvwy","32.82070336","-117.14140980","MTS","2.00000000","F-W/B","balpen","","32.82069858493513","-117.1413978956014"
"577","MTS_10156","10156","10156","Balboa Av & Ponderosa Av","32.82211287","-117.13190601","MTS","1.00000000","F-E/B","balpon","","32.822108094338915","-117.13189410776238"
"578","MTS_10921","10921","10921","Balboa Av & Ponderosa Av","32.82241323","-117.13179834","MTS","1.00000000","N-W/B","balpon","","32.822408454371555","-117.13178643701929"
"579","MTS_10176","10176","10176","Balboa Av & Ruffin Rd","32.82219862","-117.12874611","MTS","2.00000000","N-E/B","balruf","","32.82219384341043","-117.12873420830729"
"580","MTS_11307","11307","11307","Balboa Av & Ruffin Rd","32.82245129","-117.12915879","MTS","1.00000000","F-W/B","balruf","","32.82244651399422","-117.12914688750753"
"581","MTS_99447","99447","99447","Balboa Av & Shopping Center Drwy","32.81994976","-117.17949963","MTS","2.00000000","F-E/B","","","32.81994498674954","-117.1794877196153"
"582","MTS_99448","99448","99448","Balboa Av & Shopping Center Drwy","32.82002812","-117.18040863","MTS","1.00000000","F-W/B","","","32.820023347149174","-117.18039671889571"
"583","MTS_10853","10853","10853","Balboa Av & Terry Bennett Drwy","32.82190689","-117.15842364","MTS","1.00000000","M-Street-W/B","","","32.82190211522868","-117.15841173304413"
"584","MTS_99190","99190","99190","Balboa Av & Viewridge Av","32.82255904","-117.12521134","MTS","1.00000000","F-W/B","balruf","","32.82255426395581","-117.12519943842474"
"585","MTS_77774","77774","77774","Balboa Avenue Station","32.80573790","-117.21405986","MTS","0E-8","","balS","balS","32.80573312993563","-117.21404794491441"
"586","MTS_77775","77775","77775","Balboa Avenue Station","32.80585769","-117.21406638","MTS","0E-8","","balS","balS","32.80585292043436","-117.21405446459933"
"587","MTS_89000","89000","89000","Balboa Avenue Transit Center","32.80514233","-117.21356288","MTS","0E-8","M-TC-Bus","baltro","baltro","32.805137560118304","-117.21355096397468"
"588","MTS_89001","89001","89001","Balboa Avenue Transit Center","32.80529506","-117.21364429","MTS","0E-8","M-TC-Bus","baltro","baltro","32.80529028993362","-117.21363237428281"
"589","MTS_89002","89002","89002","Balboa Avenue Transit Center","32.80548683","-117.21376029","MTS","0E-8","M-TC-Bus","baltro","baltro","32.80548205984788","-117.21374837446503"
"590","MTS_89004","89004","89004","Balboa Avenue Transit Center","32.80584392","-117.21396468","MTS","0E-8","M-TC-Bus","baltro","baltro","32.805839150077134","-117.21395276463792"
"591","MTS_13022","13022","13022","Baltimore Dr & Aztec Dr","32.77743774","-117.02953668","MTS","1.00000000","M-Street-W/B","","","32.77743296432204","-117.02952479826133"
"592","MTS_13140","13140","13140","Baltimore Dr & Aztec Dr","32.77700481","-117.02932462","MTS","1.00000000","M-Street-E/B","","","32.77700003399458","-117.02931273887137"
"593","MTS_11456","11456","11456","Baltimore Dr & Lake Murray Bl","32.78022896","-117.03277266","MTS","1.00000000","F-E/B","ballak","","32.78022418360999","-117.03276077847318"
"594","MTS_13020","13020","13020","Baltimore Dr & Lake Murray Bl","32.78147018","-117.03294638","MTS","1.00000000","F-N/B","ballkN","","32.78146540397829","-117.03293449733079"
"595","MTS_11804","11804","11804","Baltimore Dr & Parkway Dr","32.77555116","-117.02753540","MTS","1.00000000","M-Street-E/B","","","32.775546384596694","-117.02752351822022"
"596","MTS_12973","12973","12973","Baltimore Dr & Parkway Dr","32.77528126","-117.02718491","MTS","1.00000000","F-W/B","","","32.775276484230716","-117.02717302896227"
"597","MTS_13056","13056","13056","Baltimore Dr & Wellesley St","32.77953694","-117.03155001","MTS","1.00000000","M-Street-W/B","","","32.779532164148534","-117.0315381279838"
"598","MTS_41127","41127","41127","Bancroft Dr & 2300","32.73081628","-117.00684328","MTS","1.00000000","M-Street-S/B","banchu","","32.730811508703596","-117.00683140487571"
"599","MTS_41118","41118","41118","Bancroft Dr & 8963","32.73070155","-117.00672848","MTS","1.00000000","M-Street-N/B","banele","","32.730696778772895","-117.00671660607247"
"600","MTS_88936","88936","88936","Bancroft Dr & Kenwood Dr","32.74470098","-117.00335513","MTS","0E-8","F-N/B","","","32.74469620604542","-117.00334325513512"
"601","MTS_88937","88937","88937","Bancroft Dr & Kenwood Dr","32.74433573","-117.00366520","MTS","0E-8","F-S/B","","","32.74433095601327","-117.00365332540196"
"602","MTS_41120","41120","41120","Bancroft Dr & Lamar St","32.73886645","-117.00552054","MTS","1.00000000","N-N/B","","","32.73886167753159","-117.00550866590564"
"603","MTS_41125","41125","41125","Bancroft Dr & Lamar St","32.73886503","-117.00575143","MTS","1.00000000","N-S/B","","","32.738860257145106","-117.00573955467374"
"604","MTS_88971","88971","88971","Bancroft Dr & Spring Valley Elementary","32.74869165","-117.00224896","MTS","0E-8","M-Street-S/B","","","32.748686876418006","-117.0022370848257"
"605","MTS_88972","88972","88972","Bancroft Dr & Spring Valley Elementary","32.74865883","-117.00181708","MTS","0E-8","M-Street-N/B","","","32.74865405611011","-117.00180520539863"
"606","MTS_41121","41121","41121","Bancroft Dr & Switzer Dr","32.74317651","-117.00410051","MTS","1.00000000","N-N/B","","","32.743171736522534","-117.00408863486152"
"607","MTS_41124","41124","41124","Bancroft Dr & Switzer Dr","32.74309835","-117.00429823","MTS","1.00000000","F-S/B","","","32.74309357650184","-117.00428635515188"
"608","MTS_41119","41119","41119","Bancroft Dr & Valencia St","32.73493361","-117.00637785","MTS","1.00000000","F-N/B","","","32.734928838666704","-117.00636597565617"
"609","MTS_41126","41126","41126","Bancroft Dr & Valencia St","32.73523515","-117.00650726","MTS","1.00000000","N-S/B","","","32.73523037826805","-117.00649538512053"
"610","MTS_13228","13228","13228","Barnes Canyon Rd & 10030","32.89925438","-117.20132913","MTS","1.00000000","M-Street-W/B","barcan","","32.89924959787526","-117.20131720958271"
"611","MTS_13198","13198","13198","Barnes Canyon Rd & 10055","32.89928741","-117.20025108","MTS","1.00000000","M-TC-Train-E/B","barcyn","","32.89928262800597","-117.20023915993764"
"612","MTS_13227","13227","13227","Barnes Canyon Rd & 10140","32.89972098","-117.19855180","MTS","1.00000000","M-Street-W/B","barcan","","32.89971619852973","-117.19853988041808"
"613","MTS_13199","13199","13199","Barnes Canyon Rd & Lusk Bl","32.89987771","-117.19675179","MTS","1.00000000","N-E/B","","","32.89987292815907","-117.1967398709794"
"614","MTS_13226","13226","13226","Barnes Canyon Rd & Lusk Bl","32.90009690","-117.19648373","MTS","1.00000000","F-W/B","","","32.900092117956454","-117.19647181083538"
"615","MTS_99270","99270","99270","Barnes Canyon Rd & Pacific Heights Bl","32.90131328","-117.19376654","MTS","1.00000000","F-W/B","","","32.901308497803214","-117.19375462095964"
"616","MTS_99271","99271","99271","Barnes Canyon Rd & Pacific Heights Bl","32.90130203","-117.19344061","MTS","1.00000000","N-E/B","","","32.90129724768906","-117.19342869030413"
"617","MTS_75018","75018","75018","Barrio Logan Station","32.69812698","-117.14666504","MTS","0E-8","M-TC-Train-N/B","barS","barS","32.69812221984148","-117.14665314447006"
"618","MTS_75019","75019","75019","Barrio Logan Station","32.69788609","-117.14645586","MTS","0E-8","M-TC-Train-S/B","barS","barS","32.69788132977723","-117.146443963103"
"619","MTS_13383","13383","13383","Bayard St & Garnet Av","32.79714634","-117.25377806","MTS","1.00000000","N-S/B","baygar","","32.797141573567906","-117.25376613851577"
